[{"urn":"100000","name":"The Aldgate School","postcode":"EC3A 5DE","phase":"Primary","lat":51.51397,"lng":-0.07753},{"urn":"100005","name":"Thomas Coram Centre","postcode":"WC1N 2NY","phase":"Nursery","lat":51.52548,"lng":-0.12078},{"urn":"100008","name":"Argyle Primary School","postcode":"WC1H 9EG","phase":"Primary","lat":51.52875,"lng":-0.12391},{"urn":"100009","name":"West Hampstead Primary School","postcode":"NW6 1QL","phase":"Primary","lat":51.55068,"lng":-0.20017},{"urn":"100010","name":"Brecknock Primary School","postcode":"NW1 9AL","phase":"Primary","lat":51.54746,"lng":-0.12784},{"urn":"100011","name":"Brookfield Primary School","postcode":"N19 5DH","phase":"Primary","lat":51.56355,"lng":-0.14458},{"urn":"100013","name":"Edith Neville Primary School","postcode":"NW1 1HQ","phase":"Primary","lat":51.53277,"lng":-0.13114},{"urn":"100014","name":"Fleet Primary School","postcode":"NW3 2QT","phase":"Primary","lat":51.55326,"lng":-0.15984},{"urn":"100015","name":"Hawley Primary School","postcode":"NW1 8RP","phase":"Primary","lat":51.54265,"lng":-0.14283},{"urn":"100018","name":"Netley Primary School","postcode":"NW1 3EX","phase":"Primary","lat":51.52755,"lng":-0.14044},{"urn":"100019","name":"New End Primary School","postcode":"NW3 1HU","phase":"Primary","lat":51.55795,"lng":-0.17688},{"urn":"100020","name":"Primrose Hill School","postcode":"NW1 8JL","phase":"Primary","lat":51.53951,"lng":-0.15135},{"urn":"100021","name":"Rhyl Community Primary School","postcode":"NW5 3HB","phase":"Primary","lat":51.54771,"lng":-0.15059},{"urn":"100022","name":"Richard Cobden Primary School","postcode":"NW1 0LL","phase":"Primary","lat":51.53548,"lng":-0.13655},{"urn":"100023","name":"Torriano Primary School","postcode":"NW5 2SJ","phase":"Primary","lat":51.54967,"lng":-0.13284},{"urn":"100025","name":"Gospel Oak Primary School","postcode":"NW3 2JB","phase":"Primary","lat":51.55506,"lng":-0.15179},{"urn":"100026","name":"Fitzjohn's Primary School","postcode":"NW3 6NP","phase":"Primary","lat":51.5534,"lng":-0.17586},{"urn":"100027","name":"Eleanor Palmer Primary School","postcode":"NW5 2JA","phase":"Primary","lat":51.55464,"lng":-0.13901},{"urn":"100028","name":"Christ Church Primary School, Hampstead","postcode":"NW3 1JH","phase":"Primary","lat":51.55956,"lng":-0.17631},{"urn":"100029","name":"Christ Church School","postcode":"NW1 4BD","phase":"Primary","lat":51.53114,"lng":-0.14424},{"urn":"100030","name":"Emmanuel Church of England Primary School","postcode":"NW6 1TF","phase":"Primary","lat":51.55235,"lng":-0.19364},{"urn":"100031","name":"Hampstead Parochial Church of England Primary School","postcode":"NW3 6TX","phase":"Primary","lat":51.55635,"lng":-0.17957},{"urn":"100032","name":"Holy Trinity CofE Primary School, NW3","postcode":"NW3 5SQ","phase":"Primary","lat":51.54615,"lng":-0.1779},{"urn":"100033","name":"Holy Trinity and Saint Silas CofE Primary School, NW1","postcode":"NW1 8DE","phase":"Primary","lat":51.54412,"lng":-0.14582},{"urn":"100034","name":"Kentish Town Church of England Primary School","postcode":"NW5 2TU","phase":"Primary","lat":51.54972,"lng":-0.13927},{"urn":"100035","name":"Rosary Catholic Primary School","postcode":"NW3 2AE","phase":"Primary","lat":51.55209,"lng":-0.16678},{"urn":"100036","name":"St Alban's Church of England Primary School","postcode":"EC1N 7SD","phase":"Primary","lat":51.52021,"lng":-0.11103},{"urn":"100040","name":"St George the Martyr Church of England Primary School","postcode":"WC1N 2NX","phase":"Primary","lat":51.52237,"lng":-0.1166},{"urn":"100041","name":"St Josephs Catholic Primary School","postcode":"WC2B 5NA","phase":"Primary","lat":51.51619,"lng":-0.12187},{"urn":"100042","name":"St Mary's Kilburn Church of England Primary School","postcode":"NW6 4PG","phase":"Primary","lat":51.54037,"lng":-0.19336},{"urn":"100043","name":"St Mary and St Pancras Church of England Primary School","postcode":"NW1 1QP","phase":"Primary","lat":51.53238,"lng":-0.13447},{"urn":"100045","name":"St Patrick's Catholic Primary School","postcode":"NW5 3AH","phase":"Primary","lat":51.54927,"lng":-0.14292},{"urn":"100046","name":"St Paul's Church of England Primary School","postcode":"NW3 3DS","phase":"Primary","lat":51.54167,"lng":-0.16289},{"urn":"100047","name":"St Eugene de Mazenod Roman Catholic Primary School","postcode":"NW6 4LS","phase":"Primary","lat":51.54097,"lng":-0.19375},{"urn":"100048","name":"Our Lady Roman Catholic Primary School","postcode":"NW1 0DP","phase":"Primary","lat":51.53887,"lng":-0.13748},{"urn":"100049","name":"Haverstock School","postcode":"NW3 2BQ","phase":"Secondary","lat":51.54483,"lng":-0.15323},{"urn":"100050","name":"Parliament Hill School","postcode":"NW5 1RL","phase":"Secondary","lat":51.55845,"lng":-0.14965},{"urn":"100051","name":"Regent High School","postcode":"NW1 1RX","phase":"Secondary","lat":51.53425,"lng":-0.13353},{"urn":"100052","name":"Hampstead School","postcode":"NW2 3RT","phase":"Secondary","lat":51.55587,"lng":-0.20698},{"urn":"100053","name":"Acland Burghley School","postcode":"NW5 1UJ","phase":"Secondary","lat":51.55753,"lng":-0.14113},{"urn":"100054","name":"The Camden School for Girls","postcode":"NW5 2DB","phase":"Secondary","lat":51.54599,"lng":-0.13469},{"urn":"100055","name":"Maria Fidelis Catholic School FCJ","postcode":"NW1 1LY","phase":"Secondary","lat":51.52989,"lng":-0.13245},{"urn":"100056","name":"William Ellis School","postcode":"NW5 1RN","phase":"Secondary","lat":51.55875,"lng":-0.15111},{"urn":"100059","name":"La Sainte Union Catholic Secondary School","postcode":"NW5 1RP","phase":"Secondary","lat":51.56,"lng":-0.14944},{"urn":"100097","name":"Rachel McMillan Nursery School and Children's Centre","postcode":"SE8 3EH","phase":"Nursery","lat":51.48135,"lng":-0.02325},{"urn":"100098","name":"Pound Park Nursery School","postcode":"SE7 8AF","phase":"Nursery","lat":51.48703,"lng":0.04145},{"urn":"100099","name":"Abbey Wood Nursery School","postcode":"SE2 0SX","phase":"Nursery","lat":51.48648,"lng":0.11237},{"urn":"100102","name":"Robert Owen Nursery School","postcode":"SE10 0EA","phase":"Nursery","lat":51.48785,"lng":0.00628},{"urn":"100114","name":"Morden Mount Primary School","postcode":"SE13 7QP","phase":"Primary","lat":51.47008,"lng":-0.01451},{"urn":"100115","name":"Cherry Orchard Primary School","postcode":"SE7 7DG","phase":"Primary","lat":51.47631,"lng":0.03212},{"urn":"100120","name":"Ealdham Primary School","postcode":"SE9 6BP","phase":"Primary","lat":51.45737,"lng":0.03552},{"urn":"100125","name":"Fossdene Primary School","postcode":"SE7 7NQ","phase":"Primary","lat":51.48441,"lng":0.02699},{"urn":"100127","name":"Gordon Primary School","postcode":"SE9 1QG","phase":"Primary","lat":51.45856,"lng":0.0545},{"urn":"100129","name":"Haimo Primary School","postcode":"SE9 6DY","phase":"Primary","lat":51.45539,"lng":0.04164},{"urn":"100131","name":"Henwick Primary School","postcode":"SE9 6NZ","phase":"Primary","lat":51.46237,"lng":0.04285},{"urn":"100134","name":"Invicta Primary School","postcode":"SE3 7HE","phase":"Primary","lat":51.47897,"lng":0.02057},{"urn":"100137","name":"Meridian Primary School","postcode":"SE10 9NY","phase":"Primary","lat":51.4838,"lng":-0.00156},{"urn":"100140","name":"Plumcroft Primary School","postcode":"SE18 3HW","phase":"Primary","lat":51.47797,"lng":0.07437},{"urn":"100141","name":"Sherington Primary School","postcode":"SE7 7JP","phase":"Primary","lat":51.48009,"lng":0.02569},{"urn":"100142","name":"Thorntree Primary School","postcode":"SE7 8AE","phase":"Primary","lat":51.48674,"lng":0.04184},{"urn":"100146","name":"Wyborne Primary School","postcode":"SE9 2EH","phase":"Primary","lat":51.44009,"lng":0.0695},{"urn":"100149","name":"Montbelle Primary School","postcode":"SE9 3EY","phase":"Primary","lat":51.4278,"lng":0.06245},{"urn":"100152","name":"De Lucy Primary School","postcode":"SE2 9PD","phase":"Primary","lat":51.49596,"lng":0.11128},{"urn":"100155","name":"Cardwell Primary School","postcode":"SE18 5LP","phase":"Primary","lat":51.49043,"lng":0.05295},{"urn":"100158","name":"Heronsgate Primary School","postcode":"SE28 0EA","phase":"Primary","lat":51.49406,"lng":0.08275},{"urn":"100159","name":"Linton Mead Primary School","postcode":"SE28 8DT","phase":"Primary","lat":51.50794,"lng":0.11301},{"urn":"100162","name":"Greenslade Primary School","postcode":"SE18 2QQ","phase":"Primary","lat":51.47967,"lng":0.0864},{"urn":"100163","name":"Mulgrave Primary School","postcode":"SE18 5DL","phase":"Primary","lat":51.48864,"lng":0.06095},{"urn":"100164","name":"Charlton Manor Primary School","postcode":"SE7 7EF","phase":"Primary","lat":51.47743,"lng":0.03687},{"urn":"100165","name":"Christ Church Church of England Primary School","postcode":"SE10 0DZ","phase":"Primary","lat":51.48814,"lng":0.00637},{"urn":"100166","name":"Christ Church Church of England Primary School, Shooters Hill","postcode":"SE18 3RS","phase":"Primary","lat":51.4699,"lng":0.06083},{"urn":"100167","name":"Eltham Church of England Primary School","postcode":"SE9 1TR","phase":"Primary","lat":51.45165,"lng":0.05645},{"urn":"100168","name":"Our Lady of Grace Catholic Primary School","postcode":"SE7 7HR","phase":"Primary","lat":51.48077,"lng":0.02729},{"urn":"100169","name":"St Joseph's Catholic Primary School","postcode":"SE10 9AN","phase":"Primary","lat":51.4864,"lng":0.0053},{"urn":"100170","name":"St Margaret's Church of England Primary School","postcode":"SE18 7RL","phase":"Primary","lat":51.48341,"lng":0.07639},{"urn":"100171","name":"Saint Mary Magdalene Church of England All Through School","postcode":"SE18 5PW","phase":"All-through","lat":51.49124,"lng":0.06119},{"urn":"100173","name":"St Patrick's Catholic Primary School","postcode":"SE18 7QG","phase":"Primary","lat":51.48785,"lng":0.08546},{"urn":"100174","name":"St Alfege with St Peter's Church of England Primary School","postcode":"SE10 9RB","phase":"Primary","lat":51.48168,"lng":-0.01222},{"urn":"100175","name":"St Peter's Catholic Primary School","postcode":"SE18 7BN","phase":"Primary","lat":51.48711,"lng":0.06869},{"urn":"100176","name":"St Thomas More Catholic Primary School","postcode":"SE9 6NS","phase":"Primary","lat":51.46175,"lng":0.04492},{"urn":"100177","name":"St Thomas A Becket Roman Catholic Primary School","postcode":"SE2 9LY","phase":"Primary","lat":51.49173,"lng":0.10402},{"urn":"100180","name":"St Margaret Clitherow Catholic Primary School","postcode":"SE28 8GB","phase":"Primary","lat":51.50114,"lng":0.11312},{"urn":"100181","name":"Bishop John Robinson Church of England Primary School","postcode":"SE28 8LW","phase":"Primary","lat":51.50839,"lng":0.11886},{"urn":"100182","name":"Eltham Hill School","postcode":"SE9 5EE","phase":"Secondary","lat":51.45091,"lng":0.04578},{"urn":"100183","name":"Plumstead Manor School","postcode":"SE18 1QF","phase":"Secondary","lat":51.48293,"lng":0.08439},{"urn":"100190","name":"Thomas Tallis School","postcode":"SE3 9PX","phase":"Secondary","lat":51.46472,"lng":0.02633},{"urn":"100193","name":"St Ursula's Convent School","postcode":"SE10 8HN","phase":"Secondary","lat":51.47578,"lng":-0.00581},{"urn":"100212","name":"Wentworth Nursery School and Children's Centre","postcode":"E9 5BY","phase":"Nursery","lat":51.54325,"lng":-0.04143},{"urn":"100213","name":"Comet Nursery School and Children's Centre","postcode":"N1 5RF","phase":"Nursery","lat":51.53614,"lng":-0.0805},{"urn":"100218","name":"Berger Primary School","postcode":"E9 6HB","phase":"Primary","lat":51.54604,"lng":-0.04484},{"urn":"100223","name":"Daubeney Primary School","postcode":"E5 0EG","phase":"Primary","lat":51.55272,"lng":-0.03799},{"urn":"100225","name":"Gainsborough Primary School","postcode":"E9 5ND","phase":"Primary","lat":51.54578,"lng":-0.02597},{"urn":"100229","name":"Lauriston School","postcode":"E9 7JS","phase":"Primary","lat":51.53663,"lng":-0.04575},{"urn":"100230","name":"London Fields Primary School","postcode":"E8 3RL","phase":"Primary","lat":51.5373,"lng":-0.06005},{"urn":"100231","name":"Millfields Community School","postcode":"E5 0SH","phase":"Primary","lat":51.55588,"lng":-0.05095},{"urn":"100232","name":"Morningside Primary School","postcode":"E9 6LL","phase":"Primary","lat":51.5465,"lng":-0.05029},{"urn":"100234","name":"Orchard Primary School","postcode":"E9 7BB","phase":"Primary","lat":51.54085,"lng":-0.04906},{"urn":"100235","name":"Queensbridge Primary School","postcode":"E8 4ET","phase":"Primary","lat":51.53929,"lng":-0.07175},{"urn":"100239","name":"Princess May Primary School","postcode":"N16 8DF","phase":"Primary","lat":51.55277,"lng":-0.0776},{"urn":"100240","name":"Sebright School","postcode":"E2 8QH","phase":"Primary","lat":51.53396,"lng":-0.06595},{"urn":"100241","name":"Shacklewell Primary School","postcode":"E8 2EA","phase":"Primary","lat":51.55323,"lng":-0.07276},{"urn":"100242","name":"Southwold Primary School","postcode":"E5 9NL","phase":"Primary","lat":51.56344,"lng":-0.05363},{"urn":"100243","name":"Thomas Fairchild Community School","postcode":"N1 7HA","phase":"Primary","lat":51.53313,"lng":-0.0912},{"urn":"100245","name":"Shoreditch Park Primary School","postcode":"N1 5JN","phase":"Primary","lat":51.53502,"lng":-0.08586},{"urn":"100248","name":"Woodberry Down Community Primary School","postcode":"N4 1SY","phase":"Primary","lat":51.57362,"lng":-0.09096},{"urn":"100250","name":"Kingsmead Primary School","postcode":"E9 5PP","phase":"Primary","lat":51.55359,"lng":-0.0353},{"urn":"100252","name":"Grasmere Primary School","postcode":"N16 9PD","phase":"Primary","lat":51.55501,"lng":-0.08356},{"urn":"100253","name":"Jubilee Primary School","postcode":"N16 6NR","phase":"Primary","lat":51.56607,"lng":-0.06594},{"urn":"100254","name":"Nightingale Primary School","postcode":"E5 8NA","phase":"Primary","lat":51.55589,"lng":-0.05995},{"urn":"100256","name":"Harrington Hill Primary School","postcode":"E5 9JG","phase":"Primary","lat":51.56726,"lng":-0.05407},{"urn":"100257","name":"Holmleigh Primary School","postcode":"N16 5ED","phase":"Primary","lat":51.57036,"lng":-0.08105},{"urn":"100258","name":"Grazebrook Primary School","postcode":"N16 0QP","phase":"Primary","lat":51.56419,"lng":-0.08313},{"urn":"100259","name":"Parkwood Primary School","postcode":"N4 2HQ","phase":"Primary","lat":51.56507,"lng":-0.09931},{"urn":"100260","name":"Benthal Primary School","postcode":"N16 7AU","phase":"Primary","lat":51.5583,"lng":-0.06519},{"urn":"100261","name":"Mandeville Primary School","postcode":"E5 0BT","phase":"Primary","lat":51.55709,"lng":-0.03959},{"urn":"100263","name":"Holy Trinity Church of England Primary School","postcode":"E8 3DY","phase":"Primary","lat":51.54439,"lng":-0.07296},{"urn":"100264","name":"Our Lady and St Joseph Catholic Primary School","postcode":"N1 4JB","phase":"Primary","lat":51.54494,"lng":-0.08044},{"urn":"100266","name":"St John the Baptist Voluntary Aided Church of England Primary School","postcode":"N1 6JG","phase":"Primary","lat":51.53091,"lng":-0.08404},{"urn":"100267","name":"St Matthias Church of England Primary School","postcode":"N16 8DD","phase":"Primary","lat":51.55287,"lng":-0.07935},{"urn":"100269","name":"St. Paul's With St. Michael's CofE Primary School","postcode":"E8 4PB","phase":"Primary","lat":51.53749,"lng":-0.06549},{"urn":"100270","name":"St John of Jerusalem Church of England Primary School","postcode":"E9 7JF","phase":"Primary","lat":51.54008,"lng":-0.05016},{"urn":"100274","name":"St Scholastica's Catholic Primary School","postcode":"E5 8BS","phase":"Primary","lat":51.55877,"lng":-0.06251},{"urn":"100275","name":"Simon Marks Jewish Primary School","postcode":"N16 6PD","phase":"Primary","lat":51.5657,"lng":-0.06848},{"urn":"100279","name":"Stoke Newington School and Sixth Form","postcode":"N16 9EX","phase":"Secondary","lat":51.55789,"lng":-0.08461},{"urn":"100282","name":"All Saints Catholic High School","postcode":"N16 5AF","phase":"Secondary","lat":51.57427,"lng":-0.07523},{"urn":"100284","name":"The Urswick School - A Church of England Secondary School","postcode":"E9 6NR","phase":"Secondary","lat":51.54445,"lng":-0.05392},{"urn":"100315","name":"Randolph Beresford Early Years Centre","postcode":"W12 7PH","phase":"Nursery","lat":51.51085,"lng":-0.23242},{"urn":"100316","name":"Vanessa Nursery School","postcode":"W12 9JA","phase":"Nursery","lat":51.50193,"lng":-0.23441},{"urn":"100317","name":"James Lee Nursery School","postcode":"W14 9BH","phase":"Nursery","lat":51.49224,"lng":-0.21363},{"urn":"100318","name":"Bayonne Nursery School","postcode":"W6 8PF","phase":"Nursery","lat":51.48442,"lng":-0.21444},{"urn":"100321","name":"Addison Primary School","postcode":"W14 0DT","phase":"Primary","lat":51.49982,"lng":-0.21921},{"urn":"100322","name":"Avonmore Primary School","postcode":"W14 9LY","phase":"Primary","lat":51.48959,"lng":-0.20314},{"urn":"100324","name":"Brackenbury Primary School","postcode":"W6 0BA","phase":"Primary","lat":51.4999,"lng":-0.23283},{"urn":"100326","name":"Miles Coverdale Primary School","postcode":"W12 8JJ","phase":"Primary","lat":51.50411,"lng":-0.22884},{"urn":"100328","name":"Flora Gardens Primary School","postcode":"W6 7PZ","phase":"Primary","lat":51.49862,"lng":-0.22464},{"urn":"100331","name":"Kenmont Primary School","postcode":"NW10 6AL","phase":"Primary","lat":51.53171,"lng":-0.23534},{"urn":"100334","name":"Melcombe Primary School","postcode":"W6 9ER","phase":"Primary","lat":51.48618,"lng":-0.22116},{"urn":"100335","name":"Old Oak Primary School","postcode":"W12 0AS","phase":"Primary","lat":51.51802,"lng":-0.24384},{"urn":"100338","name":"Sir John Lillie Primary School","postcode":"SW6 7LN","phase":"Primary","lat":51.48307,"lng":-0.20963},{"urn":"100340","name":"Wendell Park Primary School","postcode":"W12 9LB","phase":"Primary","lat":51.50333,"lng":-0.24897},{"urn":"100341","name":"Wormholt Park Primary School","postcode":"W12 0SR","phase":"Primary","lat":51.51167,"lng":-0.23875},{"urn":"100344","name":"All Saints CofE Primary School","postcode":"SW6 6ED","phase":"Primary","lat":51.47286,"lng":-0.21362},{"urn":"100345","name":"Holy Cross RC School","postcode":"SW6 4BL","phase":"Primary","lat":51.47591,"lng":-0.19898},{"urn":"100346","name":"John Betts Primary School","postcode":"W6 0UA","phase":"Primary","lat":51.49682,"lng":-0.23572},{"urn":"100349","name":"St John's Walham Green Church of England Primary School","postcode":"SW6 6AS","phase":"Primary","lat":51.47705,"lng":-0.20912},{"urn":"100350","name":"St Mary's Catholic Primary School","postcode":"W14 0LT","phase":"Primary","lat":51.4989,"lng":-0.21599},{"urn":"100351","name":"St Paul's CofE Primary School","postcode":"W6 9BP","phase":"Primary","lat":51.49064,"lng":-0.2272},{"urn":"100352","name":"St Peter's Primary School","postcode":"W6 9BA","phase":"Primary","lat":51.49216,"lng":-0.24013},{"urn":"100353","name":"St Stephen's CofE Primary School","postcode":"W12 8LH","phase":"Primary","lat":51.50554,"lng":-0.22763},{"urn":"100354","name":"Good Shepherd RC Primary School","postcode":"W12 9BY","phase":"Primary","lat":51.50264,"lng":-0.24526},{"urn":"100384","name":"Margaret McMillan Nursery School","postcode":"N19 3SF","phase":"Nursery","lat":51.57205,"lng":-0.12578},{"urn":"100385","name":"Kate Greenaway Nursery School and Children's Centre","postcode":"N1 0UH","phase":"Nursery","lat":51.53631,"lng":-0.12067},{"urn":"100386","name":"North Islington Nursery School","postcode":"N4 3RB","phase":"Nursery","lat":51.56657,"lng":-0.11339},{"urn":"100397","name":"Ambler Primary School and Children's Centre","postcode":"N4 2DR","phase":"Primary","lat":51.56255,"lng":-0.10174},{"urn":"100402","name":"Drayton Park Primary School","postcode":"N5 1PJ","phase":"Primary","lat":51.55155,"lng":-0.10573},{"urn":"100403","name":"Duncombe Primary School","postcode":"N19 4JA","phase":"Primary","lat":51.56692,"lng":-0.12366},{"urn":"100405","name":"Gillespie Primary School","postcode":"N5 1LH","phase":"Primary","lat":51.56001,"lng":-0.10006},{"urn":"100406","name":"Grafton Primary School","postcode":"N7 6AR","phase":"Primary","lat":51.5591,"lng":-0.11912},{"urn":"100407","name":"Hanover Primary School","postcode":"N1 8BD","phase":"Primary","lat":51.53294,"lng":-0.09859},{"urn":"100408","name":"Hargrave Park Primary School","postcode":"N19 5BS","phase":"Primary","lat":51.56428,"lng":-0.14008},{"urn":"100411","name":"Laycock Primary School","postcode":"N1 1SW","phase":"Primary","lat":51.54453,"lng":-0.10455},{"urn":"100415","name":"Moreland Primary School","postcode":"EC1V 8BB","phase":"Primary","lat":51.5284,"lng":-0.09936},{"urn":"100418","name":"Pakeman Primary School","postcode":"N7 6DU","phase":"Primary","lat":51.5588,"lng":-0.11402},{"urn":"100422","name":"Robert Blair School and Children's Centre","postcode":"N7 9QJ","phase":"Primary","lat":51.54475,"lng":-0.12175},{"urn":"100425","name":"Thornhill Primary School","postcode":"N1 1HX","phase":"Primary","lat":51.54084,"lng":-0.10993},{"urn":"100426","name":"Vittoria Primary School","postcode":"N1 0WF","phase":"Primary","lat":51.53537,"lng":-0.11334},{"urn":"100428","name":"Winton Primary School","postcode":"N1 9AZ","phase":"Primary","lat":51.53235,"lng":-0.11805},{"urn":"100429","name":"Yerbury Primary School","postcode":"N19 4RR","phase":"Primary","lat":51.56121,"lng":-0.13041},{"urn":"100430","name":"Tufnell Park Primary School","postcode":"N7 0HJ","phase":"Primary","lat":51.55445,"lng":-0.12957},{"urn":"100432","name":"Ashmount Primary School","postcode":"N8 9EG","phase":"Primary","lat":51.57366,"lng":-0.12419},{"urn":"100434","name":"Prior Weston Primary School and Children's Centre","postcode":"EC1Y 8JA","phase":"Primary","lat":51.52167,"lng":-0.09338},{"urn":"100437","name":"Sacred Heart Catholic Primary School","postcode":"N7 8JN","phase":"Primary","lat":51.55033,"lng":-0.11353},{"urn":"100438","name":"St John Evangelist Catholic Primary School","postcode":"N1 8BL","phase":"Primary","lat":51.53397,"lng":-0.10405},{"urn":"100439","name":"St John's Upper Holloway CofE Primary School","postcode":"N19 5RR","phase":"Primary","lat":51.56262,"lng":-0.13305},{"urn":"100440","name":"St John's Highbury Vale CofE Primary School","postcode":"N5 1DL","phase":"Primary","lat":51.55819,"lng":-0.10077},{"urn":"100441","name":"St Joseph's Catholic Primary School","postcode":"N19 5NE","phase":"Primary","lat":51.56861,"lng":-0.14169},{"urn":"100443","name":"St Luke's CofE Primary School","postcode":"EC1V 3SJ","phase":"Primary","lat":51.52657,"lng":-0.09192},{"urn":"100444","name":"St Mark's CofE Primary School","postcode":"N19 4JF","phase":"Primary","lat":51.56436,"lng":-0.12094},{"urn":"100446","name":"St Mary's CofE Primary School","postcode":"N1 2EP","phase":"Primary","lat":51.53962,"lng":-0.10029},{"urn":"100447","name":"St Peter and St Paul Catholic Primary School","postcode":"EC1V 0EU","phase":"Primary","lat":51.52483,"lng":-0.10087},{"urn":"100448","name":"St Andrew's (Barnsbury) CofE Primary School","postcode":"N1 0LB","phase":"Primary","lat":51.53819,"lng":-0.11462},{"urn":"100449","name":"St Joan of Arc RC Primary School","postcode":"N5 2UX","phase":"Primary","lat":51.5566,"lng":-0.097},{"urn":"100450","name":"Christ The King Catholic Primary School","postcode":"N4 3QW","phase":"Primary","lat":51.56637,"lng":-0.11503},{"urn":"100455","name":"Highbury Fields School","postcode":"N5 1AR","phase":"Secondary","lat":51.5528,"lng":-0.10153},{"urn":"100457","name":"Elizabeth Garrett Anderson School","postcode":"N1 9QG","phase":"Secondary","lat":51.53295,"lng":-0.11265},{"urn":"100458","name":"Central Foundation Boys' School","postcode":"EC2A 4SH","phase":"Secondary","lat":51.52526,"lng":-0.08585},{"urn":"100472","name":"Golborne & Maxilla Nursery School","postcode":"W10 5TN","phase":"Nursery","lat":51.52061,"lng":-0.20684},{"urn":"100473","name":"St Anne's & Avondale Park Nursery School","postcode":"W11 4EE","phase":"Nursery","lat":51.51066,"lng":-0.2138},{"urn":"100474","name":"Chelsea Open Air Nursery School","postcode":"SW3 5JE","phase":"Nursery","lat":51.48517,"lng":-0.16941},{"urn":"100477","name":"Ashburnham Community School","postcode":"SW10 0DT","phase":"Primary","lat":51.48137,"lng":-0.17891},{"urn":"100478","name":"Barlby Primary School","postcode":"W10 6DW","phase":"Primary","lat":51.52332,"lng":-0.21649},{"urn":"100479","name":"Bevington Primary School","postcode":"W10 5TW","phase":"Primary","lat":51.52137,"lng":-0.20816},{"urn":"100480","name":"Bousfield Primary School","postcode":"SW5 0DJ","phase":"Primary","lat":51.49022,"lng":-0.18612},{"urn":"100481","name":"Colville Primary School","postcode":"W11 2DF","phase":"Primary","lat":51.51476,"lng":-0.20316},{"urn":"100482","name":"Fox Primary School","postcode":"W8 7PP","phase":"Primary","lat":51.50732,"lng":-0.19691},{"urn":"100483","name":"Marlborough Primary School","postcode":"SW3 3AP","phase":"Primary","lat":51.49273,"lng":-0.16605},{"urn":"100485","name":"Oxford Gardens Primary School","postcode":"W10 6NF","phase":"Primary","lat":51.51684,"lng":-0.21898},{"urn":"100486","name":"Park Walk Primary School","postcode":"SW10 0AY","phase":"Primary","lat":51.48415,"lng":-0.17796},{"urn":"100487","name":"Avondale Park Primary School","postcode":"W11 4EE","phase":"Primary","lat":51.51066,"lng":-0.2138},{"urn":"100488","name":"Thomas Jones Primary School","postcode":"W11 1RQ","phase":"Primary","lat":51.51573,"lng":-0.21126},{"urn":"100489","name":"Christ Church CofE Primary School","postcode":"SW3 4AA","phase":"Primary","lat":51.48541,"lng":-0.16432},{"urn":"100490","name":"Holy Trinity CofE Primary School","postcode":"SW1X 9DE","phase":"Primary","lat":51.49345,"lng":-0.15675},{"urn":"100491","name":"Oratory Roman Catholic Primary School","postcode":"SW3 6QH","phase":"Primary","lat":51.4905,"lng":-0.17009},{"urn":"100492","name":"St Thomas' CofE Primary School","postcode":"W10 5EF","phase":"Primary","lat":51.52391,"lng":-0.20897},{"urn":"100493","name":"St Barnabas and St Philip's CofE Primary School","postcode":"W8 6EJ","phase":"Primary","lat":51.49764,"lng":-0.19845},{"urn":"100494","name":"Saint Francis of Assisi Catholic Primary School","postcode":"W11 4BJ","phase":"Primary","lat":51.51222,"lng":-0.21698},{"urn":"100495","name":"St Clement and St James CofE Primary School","postcode":"W11 4PG","phase":"Primary","lat":51.50908,"lng":-0.21135},{"urn":"100497","name":"St Mary Abbots CofE Primary School","postcode":"W8 4SP","phase":"Primary","lat":51.50212,"lng":-0.19222},{"urn":"100499","name":"Saint Mary's Catholic Primary School","postcode":"W10 5AW","phase":"Primary","lat":51.52509,"lng":-0.2108},{"urn":"100500","name":"Servite RC Primary School","postcode":"SW10 9NA","phase":"Primary","lat":51.48517,"lng":-0.1838},{"urn":"100503","name":"All Saints Catholic College","postcode":"W10 6EL","phase":"Secondary","lat":51.52018,"lng":-0.21487},{"urn":"100505","name":"St Charles Catholic Primary School","postcode":"W10 6EB","phase":"Primary","lat":51.52133,"lng":-0.21517},{"urn":"100550","name":"Triangle Nursery School","postcode":"SW2 1PL","phase":"Nursery","lat":51.4567,"lng":-0.10991},{"urn":"100551","name":"Effra Nursery School and Children's Centre","postcode":"SW2 1PL","phase":"Nursery","lat":51.45723,"lng":-0.1095},{"urn":"100552","name":"Ethelred Nursery School and Children's Centre","postcode":"SE11 6BG","phase":"Nursery","lat":51.49092,"lng":-0.11166},{"urn":"100553","name":"Maytree Nursery School","postcode":"SW4 8EG","phase":"Nursery","lat":51.45156,"lng":-0.13107},{"urn":"100554","name":"Holmewood Nursery School","postcode":"SW2 2RW","phase":"Nursery","lat":51.44752,"lng":-0.12001},{"urn":"100556","name":"Ashmole Primary School","postcode":"SW8 1NT","phase":"Primary","lat":51.48201,"lng":-0.11494},{"urn":"100560","name":"Clapham Manor Primary School","postcode":"SW4 0BZ","phase":"Primary","lat":51.46441,"lng":-0.13756},{"urn":"100564","name":"Granton Primary School","postcode":"SW16 5AN","phase":"Primary","lat":51.41451,"lng":-0.14225},{"urn":"100566","name":"Heathbrook Primary School","postcode":"SW8 3EH","phase":"Primary","lat":51.47012,"lng":-0.14317},{"urn":"100567","name":"Henry Cavendish Primary School","postcode":"SW12 0JA","phase":"Primary","lat":51.44474,"lng":-0.14281},{"urn":"100572","name":"Jessop Primary School","postcode":"SE24 0BJ","phase":"Primary","lat":51.4599,"lng":-0.10143},{"urn":"100574","name":"Kingswood Primary School","postcode":"SE27 9RD","phase":"Primary","lat":51.42697,"lng":-0.09042},{"urn":"100576","name":"Larkhall Primary Campus","postcode":"SW4 6PH","phase":"Primary","lat":51.47067,"lng":-0.12973},{"urn":"100577","name":"Paxton Primary School","postcode":"SE19 1PA","phase":"Primary","lat":51.42196,"lng":-0.08119},{"urn":"100578","name":"Richard Atkins Primary School","postcode":"SW2 4JP","phase":"Primary","lat":51.44809,"lng":-0.12696},{"urn":"100582","name":"Stockwell Primary School","postcode":"SW9 9TG","phase":"Primary","lat":51.46661,"lng":-0.11806},{"urn":"100584","name":"Sudbourne Primary School","postcode":"SW2 5EF","phase":"Primary","lat":51.45842,"lng":-0.11932},{"urn":"100585","name":"Sunnyhill Primary School","postcode":"SW16 2UW","phase":"Primary","lat":51.42909,"lng":-0.12011},{"urn":"100586","name":"Telferscot Primary School","postcode":"SW12 0HW","phase":"Primary","lat":51.44256,"lng":-0.1371},{"urn":"100588","name":"Vauxhall Primary School","postcode":"SE11 5LG","phase":"Primary","lat":51.48893,"lng":-0.11769},{"urn":"100589","name":"Walnut Tree Walk Primary School","postcode":"SE11 6DS","phase":"Primary","lat":51.49394,"lng":-0.11334},{"urn":"100590","name":"Woodmansterne School","postcode":"SW16 5UQ","phase":"All-through","lat":51.41264,"lng":-0.1357},{"urn":"100591","name":"Wyvil Primary School and Resource Bases for Speech, Language and Communication Needs, and Autism","postcode":"SW8 2TJ","phase":"Primary","lat":51.48129,"lng":-0.12548},{"urn":"100593","name":"Crown Lane Primary School","postcode":"SW16 3HX","phase":"Primary","lat":51.42361,"lng":-0.10926},{"urn":"100595","name":"Fenstanton Primary School","postcode":"SW2 3PW","phase":"Primary","lat":51.44225,"lng":-0.11364},{"urn":"100597","name":"Elm Wood School","postcode":"SE27 9RR","phase":"Primary","lat":51.43201,"lng":-0.09198},{"urn":"100598","name":"Allen Edwards Primary School","postcode":"SW4 6RP","phase":"Primary","lat":51.47287,"lng":-0.12722},{"urn":"100601","name":"Glenbrook Primary School","postcode":"SW4 8LD","phase":"Primary","lat":51.453,"lng":-0.13215},{"urn":"100602","name":"Julian's School","postcode":"SE27 0JF","phase":"Primary","lat":51.43123,"lng":-0.10551},{"urn":"100604","name":"Herbert Morrison Primary School","postcode":"SW8 2HP","phase":"Primary","lat":51.47866,"lng":-0.12589},{"urn":"100609","name":"Archbishop Sumner Church of England Primary School","postcode":"SE11 4PH","phase":"Primary","lat":51.4916,"lng":-0.10996},{"urn":"100610","name":"Christ Church Primary SW9","postcode":"SW9 6HN","phase":"Primary","lat":51.47623,"lng":-0.10815},{"urn":"100612","name":"Macaulay Church of England Primary School","postcode":"SW4 0NU","phase":"Primary","lat":51.46366,"lng":-0.14744},{"urn":"100613","name":"St Andrew's Church of England Primary School","postcode":"SW9 9DE","phase":"Primary","lat":51.46835,"lng":-0.12235},{"urn":"100614","name":"St John the Divine Church of England Primary School","postcode":"SE5 0SX","phase":"Primary","lat":51.47889,"lng":-0.10372},{"urn":"100615","name":"St John's Angell Town Church of England Primary School","postcode":"SW9 7HH","phase":"Primary","lat":51.46805,"lng":-0.10854},{"urn":"100616","name":"St Jude's Church of England Primary School","postcode":"SE24 0EL","phase":"Primary","lat":51.45432,"lng":-0.10504},{"urn":"100619","name":"St Mark's Church of England Primary School","postcode":"SE11 5SL","phase":"Primary","lat":51.48457,"lng":-0.11731},{"urn":"100620","name":"St Saviour's Church of England Primary School","postcode":"SE24 0AY","phase":"Primary","lat":51.46371,"lng":-0.09793},{"urn":"100621","name":"St Stephen's Church of England Primary School","postcode":"SW8 1EJ","phase":"Primary","lat":51.47974,"lng":-0.12232},{"urn":"100622","name":"Holy Trinity Church of England Primary School","postcode":"SW2 2RL","phase":"Primary","lat":51.44756,"lng":-0.11837},{"urn":"100623","name":"St Helen's Catholic Primary School","postcode":"SW9 0TQ","phase":"Primary","lat":51.46712,"lng":-0.11342},{"urn":"100624","name":"The Norwood School","postcode":"SE19 3NY","phase":"Secondary","lat":51.42318,"lng":-0.09967},{"urn":"100625","name":"Lilian Baylis Technology School","postcode":"SE11 5QY","phase":"Secondary","lat":51.48616,"lng":-0.11766},{"urn":"100627","name":"Saint Gabriel's College","postcode":"SW9 6UL","phase":"Secondary","lat":51.47598,"lng":-0.10241},{"urn":"100629","name":"St Anne's Catholic Primary School","postcode":"SE11 5JA","phase":"Primary","lat":51.48557,"lng":-0.11936},{"urn":"100631","name":"St Bede's Catholic Primary School","postcode":"SW12 0LF","phase":"Primary","lat":51.44452,"lng":-0.13559},{"urn":"100632","name":"St Andrew's Catholic Primary School","postcode":"SW16 2ET","phase":"Primary","lat":51.42432,"lng":-0.12581},{"urn":"100633","name":"Immanuel and St Andrew Church of England Primary School","postcode":"SW16 5SL","phase":"Primary","lat":51.41935,"lng":-0.13154},{"urn":"100634","name":"Reay Primary School","postcode":"SW9 0EN","phase":"Primary","lat":51.4775,"lng":-0.11512},{"urn":"100636","name":"St Mary's Roman Catholic Primary School","postcode":"SW4 9QJ","phase":"Primary","lat":51.45912,"lng":-0.13806},{"urn":"100637","name":"La Retraite Roman Catholic Girls' School","postcode":"SW12 0AB","phase":"Secondary","lat":51.44773,"lng":-0.1428},{"urn":"100638","name":"Bishop Thomas Grant Catholic Secondary School","postcode":"SW16 2HY","phase":"Secondary","lat":51.42497,"lng":-0.11874},{"urn":"100667","name":"Clyde Nursery School.","postcode":"SE8 5NH","phase":"Nursery","lat":51.4843,"lng":-0.03381},{"urn":"100668","name":"Chelwood Nursery School","postcode":"SE4 2QQ","phase":"Nursery","lat":51.45859,"lng":-0.04259},{"urn":"100671","name":"Adamsrill Primary School","postcode":"SE26 4AQ","phase":"Primary","lat":51.43084,"lng":-0.04137},{"urn":"100672","name":"Athelney Primary School","postcode":"SE6 3LD","phase":"Primary","lat":51.43407,"lng":-0.02396},{"urn":"100673","name":"Baring Primary School","postcode":"SE12 0NB","phase":"Primary","lat":51.44432,"lng":0.01435},{"urn":"100674","name":"Beecroft Garden Primary","postcode":"SE4 2BS","phase":"Primary","lat":51.45712,"lng":-0.03609},{"urn":"100676","name":"Cooper's Lane Primary School","postcode":"SE12 0LF","phase":"Primary","lat":51.43716,"lng":0.02064},{"urn":"100677","name":"Dalmain Primary School","postcode":"SE23 1AS","phase":"Primary","lat":51.44358,"lng":-0.04348},{"urn":"100678","name":"Deptford Park Primary School","postcode":"SE8 5RJ","phase":"Primary","lat":51.48821,"lng":-0.03786},{"urn":"100679","name":"Downderry Primary School","postcode":"BR1 5QL","phase":"Primary","lat":51.42822,"lng":0.00038},{"urn":"100680","name":"Edmund Waller Primary School","postcode":"SE14 5LY","phase":"Primary","lat":51.47076,"lng":-0.04862},{"urn":"100681","name":"Elfrida Primary School","postcode":"SE6 3EN","phase":"Primary","lat":51.42894,"lng":-0.02362},{"urn":"100683","name":"Forster Park Primary School","postcode":"SE6 1PQ","phase":"Primary","lat":51.4342,"lng":0.00362},{"urn":"100684","name":"Gordonbrock Primary School","postcode":"SE4 1HQ","phase":"Primary","lat":51.45565,"lng":-0.02799},{"urn":"100685","name":"Grinling Gibbons Primary School","postcode":"SE8 5LW","phase":"Primary","lat":51.48152,"lng":-0.02947},{"urn":"100686","name":"Haseltine Primary School","postcode":"SE26 5AD","phase":"Primary","lat":51.42829,"lng":-0.0364},{"urn":"100687","name":"Brindishe Green School","postcode":"SE13 6EH","phase":"Primary","lat":51.45131,"lng":-0.00454},{"urn":"100688","name":"Holbeach Primary School","postcode":"SE6 4TP","phase":"Primary","lat":51.44793,"lng":-0.02321},{"urn":"100689","name":"John Stainer Community Primary School","postcode":"SE4 2DY","phase":"Primary","lat":51.46421,"lng":-0.03961},{"urn":"100690","name":"Kelvin Grove Primary School","postcode":"SE26 6BB","phase":"Primary","lat":51.43259,"lng":-0.06278},{"urn":"100691","name":"Kender Primary School","postcode":"SE14 5JA","phase":"Primary","lat":51.47499,"lng":-0.0508},{"urn":"100692","name":"Launcelot Primary School and Nursery","postcode":"BR1 5EA","phase":"Primary","lat":51.42658,"lng":0.01447},{"urn":"100693","name":"Brindishe Manor School","postcode":"SE13 5LS","phase":"Primary","lat":51.45214,"lng":0.0041},{"urn":"100695","name":"Oak Gardens Primary School","postcode":"SE8 4QB","phase":"Primary","lat":51.47174,"lng":-0.02828},{"urn":"100696","name":"Marvels Lane Primary School","postcode":"SE12 9RA","phase":"Primary","lat":51.42875,"lng":0.03303},{"urn":"100699","name":"Rangefield Primary School","postcode":"BR1 4RP","phase":"Primary","lat":51.42441,"lng":0.00368},{"urn":"100700","name":"Rathfern Primary School","postcode":"SE6 4NL","phase":"Primary","lat":51.44119,"lng":-0.03267},{"urn":"100701","name":"Rushey Green Primary School","postcode":"SE6 2LA","phase":"Primary","lat":51.44291,"lng":-0.01904},{"urn":"100703","name":"Sandhurst Primary School","postcode":"SE6 1NW","phase":"Primary","lat":51.44299,"lng":-0.00055},{"urn":"100704","name":"Stillness Junior School","postcode":"SE23 1NH","phase":"Primary","lat":51.44942,"lng":-0.03891},{"urn":"100705","name":"Stillness Infant School","postcode":"SE23 1NH","phase":"Primary","lat":51.44942,"lng":-0.03891},{"urn":"100708","name":"Torridon Primary School","postcode":"SE6 1TG","phase":"Primary","lat":51.43664,"lng":-0.00241},{"urn":"100709","name":"John Ball Primary School","postcode":"SE3 0TP","phase":"Primary","lat":51.46626,"lng":0.00509},{"urn":"100710","name":"Fairlawn Primary School","postcode":"SE23 3SB","phase":"Primary","lat":51.44715,"lng":-0.05452},{"urn":"100711","name":"Eliot Bank Primary School","postcode":"SE26 4BU","phase":"Primary","lat":51.43709,"lng":-0.06184},{"urn":"100712","name":"Twin Oaks Primary School","postcode":"SE8 5AE","phase":"Primary","lat":51.48578,"lng":-0.04209},{"urn":"100713","name":"Myatt Garden Primary School","postcode":"SE4 1DF","phase":"Primary","lat":51.47034,"lng":-0.03143},{"urn":"100714","name":"Horniman Primary School","postcode":"SE23 3BP","phase":"Primary","lat":51.4438,"lng":-0.05921},{"urn":"100715","name":"Perrymount Primary School","postcode":"SE23 2PX","phase":"Primary","lat":51.437,"lng":-0.04678},{"urn":"100716","name":"Ashmead Primary School","postcode":"SE8 4DX","phase":"Primary","lat":51.46923,"lng":-0.02552},{"urn":"100717","name":"Brindishe Lee School","postcode":"SE12 8NA","phase":"Primary","lat":51.45372,"lng":0.0088},{"urn":"100718","name":"Kilmorie Primary School","postcode":"SE23 2SP","phase":"Primary","lat":51.43872,"lng":-0.03983},{"urn":"100719","name":"All Saints' Church of England Primary School Blackheath","postcode":"SE3 0TX","phase":"Primary","lat":51.46948,"lng":0.00346},{"urn":"100722","name":"Good Shepherd RC School","postcode":"BR1 5EP","phase":"Primary","lat":51.42651,"lng":0.01051},{"urn":"100723","name":"Holy Trinity Church of England Primary School","postcode":"SE23 3HZ","phase":"Primary","lat":51.43554,"lng":-0.05651},{"urn":"100724","name":"St Margaret's Lee CofE Primary School","postcode":"SE13 5SG","phase":"Primary","lat":51.4596,"lng":0.00509},{"urn":"100725","name":"St Augustine's Catholic Primary School and Nursery","postcode":"SE6 3RD","phase":"Primary","lat":51.4241,"lng":-0.01659},{"urn":"100726","name":"St Bartholomews's Church of England Primary School","postcode":"SE26 4LJ","phase":"Primary","lat":51.43099,"lng":-0.05515},{"urn":"100728","name":"St John Baptist Southend Church of England Primary School","postcode":"BR1 5RL","phase":"Primary","lat":51.42898,"lng":-0.01166},{"urn":"100729","name":"St Joseph's Catholic Primary School","postcode":"SE8 3PH","phase":"Primary","lat":51.47888,"lng":-0.02535},{"urn":"100730","name":"St Mary's Lewisham Church of England Primary School","postcode":"SE13 6NX","phase":"Primary","lat":51.45506,"lng":-0.01526},{"urn":"100733","name":"St Saviour's Catholic Primary School","postcode":"SE13 6AL","phase":"Primary","lat":51.46008,"lng":-0.01032},{"urn":"100737","name":"St William of York Catholic Primary School","postcode":"SE23 1PS","phase":"Primary","lat":51.44431,"lng":-0.03919},{"urn":"100739","name":"Holy Cross Catholic Primary School","postcode":"SE6 2LD","phase":"Primary","lat":51.44282,"lng":-0.0167},{"urn":"100740","name":"Deptford Green School","postcode":"SE14 6AN","phase":"Secondary","lat":51.47835,"lng":-0.03659},{"urn":"100741","name":"Sydenham School","postcode":"SE26 4RD","phase":"Secondary","lat":51.43423,"lng":-0.0592},{"urn":"100745","name":"Forest Hill School","postcode":"SE23 2XN","phase":"Secondary","lat":51.43199,"lng":-0.04791},{"urn":"100748","name":"Addey and Stanhope School","postcode":"SE14 6TJ","phase":"Secondary","lat":51.47465,"lng":-0.02829},{"urn":"100749","name":"Trinity Church of England School, Lewisham","postcode":"SE12 8PD","phase":"All-through","lat":51.45521,"lng":0.00746},{"urn":"100767","name":"Kintore Way Nursery School and Children's Centre","postcode":"SE1 3BW","phase":"Nursery","lat":51.49438,"lng":-0.07608},{"urn":"100769","name":"Dulwich Wood Nursery School","postcode":"SE21 8QS","phase":"Nursery","lat":51.43138,"lng":-0.07985},{"urn":"100770","name":"Nell Gwynn Nursery School","postcode":"SE15 2TT","phase":"Nursery","lat":51.47487,"lng":-0.06453},{"urn":"100771","name":"The Grove Nursery School","postcode":"SE15 6BY","phase":"Nursery","lat":51.4805,"lng":-0.08196},{"urn":"100774","name":"Albion Primary School","postcode":"SE16 7JD","phase":"Primary","lat":51.49994,"lng":-0.05165},{"urn":"100775","name":"Bellenden Primary School","postcode":"SE15 4JP","phase":"Primary","lat":51.46489,"lng":-0.06777},{"urn":"100780","name":"Bird In Bush School","postcode":"SE15 1QP","phase":"Primary","lat":51.48043,"lng":-0.06343},{"urn":"100784","name":"Crampton Primary","postcode":"SE17 3LE","phase":"Primary","lat":51.48997,"lng":-0.10094},{"urn":"100785","name":"Crawford Primary School","postcode":"SE5 9NF","phase":"Primary","lat":51.47211,"lng":-0.09568},{"urn":"100790","name":"Goodrich Community Primary School","postcode":"SE22 0EP","phase":"Primary","lat":51.44994,"lng":-0.0681},{"urn":"100791","name":"Grange Primary School","postcode":"SE1 4RP","phase":"Primary","lat":51.49615,"lng":-0.08194},{"urn":"100793","name":"Heber Primary School","postcode":"SE22 9LA","phase":"Primary","lat":51.45286,"lng":-0.07361},{"urn":"100794","name":"Hollydale Primary School","postcode":"SE15 2AR","phase":"Primary","lat":51.46769,"lng":-0.05254},{"urn":"100795","name":"Ilderton Primary School","postcode":"SE16 3LA","phase":"Primary","lat":51.48501,"lng":-0.05438},{"urn":"100796","name":"Ivydale Primary School","postcode":"SE15 3BU","phase":"Primary","lat":51.45961,"lng":-0.04625},{"urn":"100798","name":"John Ruskin Primary School and Language Classes","postcode":"SE5 0PQ","phase":"Primary","lat":51.48306,"lng":-0.09718},{"urn":"100800","name":"Keyworth Primary School","postcode":"SE17 3TR","phase":"Primary","lat":51.4867,"lng":-0.10469},{"urn":"100801","name":"Dulwich Wood Primary School","postcode":"SE21 8NS","phase":"Primary","lat":51.43193,"lng":-0.08288},{"urn":"100803","name":"Michael Faraday School","postcode":"SE17 2HR","phase":"Primary","lat":51.48525,"lng":-0.08839},{"urn":"100808","name":"Riverside Primary School","postcode":"SE16 4PS","phase":"Primary","lat":51.49952,"lng":-0.06481},{"urn":"100809","name":"Robert Browning Primary School","postcode":"SE17 1DQ","phase":"Primary","lat":51.48884,"lng":-0.0926},{"urn":"100811","name":"Snowsfields Primary School","postcode":"SE1 3TD","phase":"Primary","lat":51.50151,"lng":-0.08388},{"urn":"100812","name":"Southwark Park Primary School","postcode":"SE16 2JH","phase":"Primary","lat":51.49414,"lng":-0.05802},{"urn":"100813","name":"Tower Bridge Primary School","postcode":"SE1 2AE","phase":"Primary","lat":51.50159,"lng":-0.07701},{"urn":"100815","name":"Victory Primary School","postcode":"SE17 1PT","phase":"Primary","lat":51.49293,"lng":-0.09284},{"urn":"100817","name":"Phoenix Primary School","postcode":"SE1 5JT","phase":"Primary","lat":51.48626,"lng":-0.0687},{"urn":"100818","name":"Pilgrims' Way Primary School","postcode":"SE15 1EF","phase":"Primary","lat":51.48048,"lng":-0.05594},{"urn":"100819","name":"Alfred Salter Primary School","postcode":"SE16 7LP","phase":"Primary","lat":51.4996,"lng":-0.04357},{"urn":"100821","name":"Oliver Goldsmith Primary School","postcode":"SE5 8UH","phase":"Primary","lat":51.47484,"lng":-0.0782},{"urn":"100822","name":"Boutcher Church of England Primary School","postcode":"SE1 3BW","phase":"Primary","lat":51.49385,"lng":-0.07623},{"urn":"100823","name":"Dulwich Village Church of England Infants' School","postcode":"SE21 7BU","phase":"Primary","lat":51.45216,"lng":-0.08659},{"urn":"100824","name":"English Martyrs' Roman Catholic Primary School","postcode":"SE17 1RB","phase":"Primary","lat":51.49064,"lng":-0.08832},{"urn":"100825","name":"St James the Great Roman Catholic Primary School","postcode":"SE15 5LP","phase":"Primary","lat":51.47436,"lng":-0.07311},{"urn":"100826","name":"St Francis RC Primary School","postcode":"SE15 1RQ","phase":"Primary","lat":51.48003,"lng":-0.06708},{"urn":"100827","name":"St George's Church of England Primary School","postcode":"SE5 7TF","phase":"Primary","lat":51.48039,"lng":-0.08434},{"urn":"100829","name":"St James' Church of England Primary School","postcode":"SE16 4SU","phase":"Primary","lat":51.49784,"lng":-0.06776},{"urn":"100830","name":"St John's and St Clement's Church of England Primary School","postcode":"SE15 4DY","phase":"Primary","lat":51.46314,"lng":-0.07174},{"urn":"100834","name":"Saint Joseph's Catholic Primary School, the Borough","postcode":"SE1 1NJ","phase":"Primary","lat":51.50245,"lng":-0.09261},{"urn":"100835","name":"St Jude's Church of England Primary School","postcode":"SE1 6HA","phase":"Primary","lat":51.49686,"lng":-0.10536},{"urn":"100837","name":"Peter Hills with St Mary's and St Paul's CofE Primary School","postcode":"SE16 5ED","phase":"Primary","lat":51.50621,"lng":-0.04257},{"urn":"100839","name":"St Peter's Church of England Primary School","postcode":"SE17 2HH","phase":"Primary","lat":51.48617,"lng":-0.09331},{"urn":"100840","name":"The Cathedral School of St Saviour and St Mary Overie","postcode":"SE1 1HG","phase":"Primary","lat":51.50287,"lng":-0.09398},{"urn":"100841","name":"St John's Roman Catholic Primary School","postcode":"SE16 6SD","phase":"Primary","lat":51.5003,"lng":-0.04151},{"urn":"100849","name":"St Saviour's and St Olave's Church of England School","postcode":"SE1 4AN","phase":"Secondary","lat":51.49466,"lng":-0.08758},{"urn":"100853","name":"St Joseph's Catholic Junior School","postcode":"SE5 0TS","phase":"Primary","lat":51.47927,"lng":-0.09899},{"urn":"100854","name":"St Joseph's Catholic Infants School","postcode":"SE5 0TS","phase":"Primary","lat":51.47927,"lng":-0.09899},{"urn":"100855","name":"Friars Primary Foundation School","postcode":"SE1 0RF","phase":"Primary","lat":51.50149,"lng":-0.1034},{"urn":"100857","name":"The St Thomas the Apostle College","postcode":"SE15 2EB","phase":"Secondary","lat":51.47074,"lng":-0.05634},{"urn":"100882","name":"Childrens House Nursery School","postcode":"E3 3HL","phase":"Nursery","lat":51.52627,"lng":-0.01746},{"urn":"100884","name":"Columbia Market Nursery School","postcode":"E2 7PG","phase":"Nursery","lat":51.52839,"lng":-0.07424},{"urn":"100887","name":"Alice Model Nursery School","postcode":"E1 4NQ","phase":"Nursery","lat":51.52107,"lng":-0.04669},{"urn":"100890","name":"Ben Jonson Primary School","postcode":"E1 4PZ","phase":"Primary","lat":51.52104,"lng":-0.03859},{"urn":"100891","name":"Bonner Primary School","postcode":"E2 0NF","phase":"Primary","lat":51.52972,"lng":-0.0487},{"urn":"100892","name":"Old Palace Primary School","postcode":"E3 3BT","phase":"Primary","lat":51.52763,"lng":-0.01417},{"urn":"100894","name":"Cayley Primary School","postcode":"E14 7NG","phase":"Primary","lat":51.51605,"lng":-0.03841},{"urn":"100895","name":"Blue Gate Fields Junior School","postcode":"E1 0EH","phase":"Primary","lat":51.51056,"lng":-0.05431},{"urn":"100896","name":"Chisenhale Primary School","postcode":"E3 5QY","phase":"Primary","lat":51.53287,"lng":-0.039},{"urn":"100898","name":"Cubitt Town Primary School","postcode":"E14 3NE","phase":"Primary","lat":51.4948,"lng":-0.00982},{"urn":"100902","name":"Globe Primary School","postcode":"E2 0JH","phase":"Primary","lat":51.52896,"lng":-0.0515},{"urn":"100903","name":"Hague Primary School","postcode":"E2 0BP","phase":"Primary","lat":51.52495,"lng":-0.05912},{"urn":"100904","name":"Harbinger Primary School","postcode":"E14 3QP","phase":"Primary","lat":51.48944,"lng":-0.02005},{"urn":"100906","name":"John Scurr Primary School","postcode":"E1 4AX","phase":"Primary","lat":51.52213,"lng":-0.05242},{"urn":"100907","name":"Lawdale Junior School","postcode":"E2 6LS","phase":"Primary","lat":51.52841,"lng":-0.06245},{"urn":"100908","name":"Elizabeth Selby Infants' School","postcode":"E2 6PP","phase":"Primary","lat":51.52841,"lng":-0.06353},{"urn":"100911","name":"Marion Richardson Primary School","postcode":"E1 0QF","phase":"Primary","lat":51.51384,"lng":-0.04606},{"urn":"100912","name":"Marner Primary School","postcode":"E3 3LL","phase":"Primary","lat":51.52293,"lng":-0.01237},{"urn":"100913","name":"Mayflower Primary School","postcode":"E14 6DU","phase":"Primary","lat":51.5117,"lng":-0.0202},{"urn":"100914","name":"Mowlem Primary School","postcode":"E2 9HE","phase":"Primary","lat":51.53367,"lng":-0.05431},{"urn":"100915","name":"Blue Gate Fields Infants' School","postcode":"E1 0EH","phase":"Primary","lat":51.51056,"lng":-0.05431},{"urn":"100916","name":"Olga Primary School","postcode":"E3 5DN","phase":"Primary","lat":51.53077,"lng":-0.03627},{"urn":"100917","name":"Stepney Park Primary School","postcode":"E1 3BW","phase":"Primary","lat":51.51876,"lng":-0.05131},{"urn":"100920","name":"Manorfield Primary School","postcode":"E14 6QD","phase":"Primary","lat":51.51826,"lng":-0.01328},{"urn":"100923","name":"Stewart Headlam Primary School","postcode":"E1 5RE","phase":"Primary","lat":51.52304,"lng":-0.05955},{"urn":"100927","name":"Wellington Primary School","postcode":"E3 4NE","phase":"Primary","lat":51.5257,"lng":-0.02424},{"urn":"100928","name":"Woolmore Primary School","postcode":"E14 0EW","phase":"Primary","lat":51.51051,"lng":-0.00886},{"urn":"100930","name":"Thomas Buxton Primary School","postcode":"E1 5AR","phase":"Primary","lat":51.52175,"lng":-0.06485},{"urn":"100931","name":"Seven Mills Primary School","postcode":"E14 8LY","phase":"Primary","lat":51.49819,"lng":-0.02401},{"urn":"100934","name":"Osmani Primary School","postcode":"E1 5AD","phase":"Primary","lat":51.5211,"lng":-0.06498},{"urn":"100937","name":"Bangabandhu Primary School","postcode":"E2 0LB","phase":"Primary","lat":51.52597,"lng":-0.052},{"urn":"100938","name":"Halley Primary School","postcode":"E14 7SS","phase":"Primary","lat":51.51804,"lng":-0.03738},{"urn":"100939","name":"Bigland Green Primary School","postcode":"E1 2ND","phase":"Primary","lat":51.51316,"lng":-0.05978},{"urn":"100940","name":"Kobi Nazrul Primary School","postcode":"E1 1JP","phase":"Primary","lat":51.51597,"lng":-0.06492},{"urn":"100943","name":"William Davis Primary School","postcode":"E2 6ET","phase":"Primary","lat":51.52419,"lng":-0.0672},{"urn":"100944","name":"Christ Church CofE School","postcode":"E1 6PU","phase":"Primary","lat":51.51882,"lng":-0.07189},{"urn":"100946","name":"Stepney Greencoat Church of England Primary School","postcode":"E14 7TF","phase":"Primary","lat":51.51415,"lng":-0.03235},{"urn":"100949","name":"St Agnes RC Primary School","postcode":"E3 3ER","phase":"Primary","lat":51.52752,"lng":-0.01867},{"urn":"100951","name":"St Edmund's Catholic School","postcode":"E14 3RS","phase":"Primary","lat":51.49104,"lng":-0.02283},{"urn":"100953","name":"St John's Church of England Primary School","postcode":"E2 9LR","phase":"Primary","lat":51.53003,"lng":-0.05438},{"urn":"100954","name":"St Luke's Church of England Primary School","postcode":"E14 3EB","phase":"Primary","lat":51.49025,"lng":-0.00534},{"urn":"100958","name":"St Paul With St Luke CofE Primary Federation","postcode":"E3 4LA","phase":"Primary","lat":51.51805,"lng":-0.02863},{"urn":"100959","name":"St Paul's Whitechapel Church of England Primary School","postcode":"E1 8HY","phase":"Primary","lat":51.51009,"lng":-0.06585},{"urn":"100960","name":"St Peter's London Docks CofE Primary School","postcode":"E1W 3QT","phase":"Primary","lat":51.50614,"lng":-0.05531},{"urn":"100961","name":"St Saviour's Church of England Primary School","postcode":"E14 6BB","phase":"Primary","lat":51.51638,"lng":-0.01736},{"urn":"100962","name":"English Martyrs Roman Catholic Primary School","postcode":"E1 8DJ","phase":"Primary","lat":51.51284,"lng":-0.07176},{"urn":"100965","name":"Bow School","postcode":"E3 3QW","phase":"Secondary","lat":51.52339,"lng":-0.0095},{"urn":"100966","name":"Langdon Park Community School","postcode":"E14 0RZ","phase":"Secondary","lat":51.51527,"lng":-0.01229},{"urn":"100967","name":"Morpeth School","postcode":"E2 0PX","phase":"Secondary","lat":51.52654,"lng":-0.04772},{"urn":"100972","name":"Oaklands School","postcode":"E2 6PR","phase":"Secondary","lat":51.52924,"lng":-0.06172},{"urn":"100973","name":"Swanlea School","postcode":"E1 5DJ","phase":"Secondary","lat":51.52075,"lng":-0.06006},{"urn":"100974","name":"George Green's School","postcode":"E14 3DW","phase":"Secondary","lat":51.48813,"lng":-0.00763},{"urn":"100975","name":"Central Foundation Girls' School","postcode":"E3 2AE","phase":"Secondary","lat":51.52739,"lng":-0.02857},{"urn":"100977","name":"Stepney All Saints Church of England Secondary School","postcode":"E1 0RH","phase":"Secondary","lat":51.51635,"lng":-0.04395},{"urn":"100990","name":"Balham Nursery School","postcode":"SW12 8JL","phase":"Nursery","lat":51.44622,"lng":-0.15432},{"urn":"100991","name":"Eastwood Nursery School","postcode":"SW15 4EU","phase":"Nursery","lat":51.45198,"lng":-0.24567},{"urn":"100992","name":"Somerset Nursery School and Children's Centre","postcode":"SW11 3ND","phase":"Nursery","lat":51.47604,"lng":-0.17476},{"urn":"100995","name":"Alderbrook Primary School","postcode":"SW12 8PP","phase":"Primary","lat":51.4486,"lng":-0.14986},{"urn":"100996","name":"Allfarthing Primary School","postcode":"SW18 2LR","phase":"Primary","lat":51.45351,"lng":-0.18567},{"urn":"100997","name":"Beatrix Potter Primary School","postcode":"SW18 3ER","phase":"Primary","lat":51.44403,"lng":-0.18235},{"urn":"101001","name":"Brandlehow Primary School","postcode":"SW15 2ED","phase":"Primary","lat":51.46137,"lng":-0.20684},{"urn":"101005","name":"Earlsfield Primary School","postcode":"SW18 3QQ","phase":"Primary","lat":51.44151,"lng":-0.18614},{"urn":"101006","name":"Falconbrook Primary School","postcode":"SW11 2LX","phase":"Primary","lat":51.46849,"lng":-0.17471},{"urn":"101009","name":"Furzedown Primary School","postcode":"SW17 9TJ","phase":"Primary","lat":51.42248,"lng":-0.15319},{"urn":"101011","name":"Honeywell Junior School","postcode":"SW11 6EF","phase":"Primary","lat":51.45474,"lng":-0.16275},{"urn":"101012","name":"Honeywell Infant School","postcode":"SW11 6EF","phase":"Primary","lat":51.45474,"lng":-0.16275},{"urn":"101013","name":"Hotham Primary School","postcode":"SW15 1PN","phase":"Primary","lat":51.46472,"lng":-0.22102},{"urn":"101014","name":"John Burns Primary School","postcode":"SW11 5QR","phase":"Primary","lat":51.46951,"lng":-0.15277},{"urn":"101016","name":"Penwortham Primary School","postcode":"SW16 6RJ","phase":"Primary","lat":51.42198,"lng":-0.14661},{"urn":"101018","name":"Riversdale Primary School","postcode":"SW18 5JP","phase":"Primary","lat":51.44654,"lng":-0.19909},{"urn":"101019","name":"Sellincourt Primary School","postcode":"SW17 9SA","phase":"Primary","lat":51.42358,"lng":-0.16854},{"urn":"101020","name":"Shaftesbury Park Primary School","postcode":"SW11 5UW","phase":"Primary","lat":51.4686,"lng":-0.15717},{"urn":"101021","name":"Smallwood Primary School and Language Unit","postcode":"SW17 0TW","phase":"Primary","lat":51.43101,"lng":-0.17953},{"urn":"101022","name":"Swaffield School","postcode":"SW18 2SA","phase":"Primary","lat":51.45119,"lng":-0.18577},{"urn":"101024","name":"West Hill Primary School","postcode":"SW18 5ST","phase":"Primary","lat":51.45632,"lng":-0.19881},{"urn":"101026","name":"Sheringdale Primary School","postcode":"SW18 5TR","phase":"Primary","lat":51.44673,"lng":-0.204},{"urn":"101027","name":"Southmead Primary School","postcode":"SW19 6QT","phase":"Primary","lat":51.4453,"lng":-0.21609},{"urn":"101028","name":"Granard Primary School","postcode":"SW15 6XA","phase":"Primary","lat":51.45616,"lng":-0.23238},{"urn":"101029","name":"Heathmere Primary School","postcode":"SW15 4LJ","phase":"Primary","lat":51.44565,"lng":-0.24191},{"urn":"101031","name":"Ronald Ross Primary School","postcode":"SW19 6RY","phase":"Primary","lat":51.44986,"lng":-0.21663},{"urn":"101032","name":"Albemarle Primary School","postcode":"SW19 6JP","phase":"Primary","lat":51.44194,"lng":-0.2138},{"urn":"101034","name":"All Saints' CofE Primary School, Putney","postcode":"SW15 1HL","phase":"Primary","lat":51.4674,"lng":-0.22738},{"urn":"101036","name":"Holy Ghost Catholic Primary School","postcode":"SW12 8QJ","phase":"Primary","lat":51.44758,"lng":-0.15723},{"urn":"101037","name":"Our Lady of Victories Catholic Primary School","postcode":"SW15 1AW","phase":"Primary","lat":51.46364,"lng":-0.22157},{"urn":"101038","name":"Roehampton Church Forest Primary School","postcode":"SW15 4AA","phase":"Primary","lat":51.44893,"lng":-0.23757},{"urn":"101042","name":"St Boniface RC Primary School","postcode":"SW17 8PP","phase":"Primary","lat":51.42719,"lng":-0.16528},{"urn":"101043","name":"St Faith's CofE Primary School","postcode":"SW18 1AE","phase":"Primary","lat":51.45933,"lng":-0.18642},{"urn":"101044","name":"St George's CofE Primary School","postcode":"SW8 4JS","phase":"Primary","lat":51.47689,"lng":-0.13923},{"urn":"101045","name":"St Joseph's Catholic Primary and Nursery School","postcode":"SW15 2QD","phase":"Primary","lat":51.4592,"lng":-0.20045},{"urn":"101046","name":"St Mary's CofE Nursery and Primary School","postcode":"SW15 1BA","phase":"Primary","lat":51.46589,"lng":-0.22105},{"urn":"101047","name":"Trinity St Mary's CofE Primary School","postcode":"SW12 8DR","phase":"Primary","lat":51.44254,"lng":-0.15539},{"urn":"101048","name":"St Mary's RC Voluntary Aided Primary School","postcode":"SW8 4EN","phase":"Primary","lat":51.47688,"lng":-0.14621},{"urn":"101049","name":"St Michael's CofE Primary School","postcode":"SW18 5SQ","phase":"Primary","lat":51.45042,"lng":-0.2041},{"urn":"101050","name":"Sacred Heart Catholic Primary School, Roehampton","postcode":"SW15 5NX","phase":"Primary","lat":51.45756,"lng":-0.24171},{"urn":"101051","name":"Our Lady Queen of Heaven RC School","postcode":"SW19 6AD","phase":"Primary","lat":51.44738,"lng":-0.22132},{"urn":"101052","name":"St Anselm's Catholic Primary School","postcode":"SW17 8RW","phase":"Primary","lat":51.4357,"lng":-0.15758},{"urn":"101057","name":"Hillbrook School","postcode":"SW17 8SG","phase":"Primary","lat":51.4307,"lng":-0.15841},{"urn":"101104","name":"Tachbrook Nursery School","postcode":"SW1V 3RT","phase":"Nursery","lat":51.48666,"lng":-0.13248},{"urn":"101105","name":"Dorothy Gardner Nursery School","postcode":"W9 3JY","phase":"Nursery","lat":51.5289,"lng":-0.2018},{"urn":"101106","name":"Mary Paterson Nursery School","postcode":"W9 3DS","phase":"Nursery","lat":51.52805,"lng":-0.20192},{"urn":"101107","name":"St John's Wood Primary School","postcode":"NW8 7AL","phase":"Primary","lat":51.5328,"lng":-0.1691},{"urn":"101110","name":"Edward Wilson Primary School","postcode":"W2 5TL","phase":"Primary","lat":51.5214,"lng":-0.18955},{"urn":"101111","name":"Essendine Primary School","postcode":"W9 2LR","phase":"Primary","lat":51.52806,"lng":-0.19497},{"urn":"101116","name":"Hallfield Primary School","postcode":"W2 6JJ","phase":"Primary","lat":51.51405,"lng":-0.18646},{"urn":"101120","name":"Queen's Park Primary School","postcode":"W10 4DQ","phase":"Primary","lat":51.52742,"lng":-0.20821},{"urn":"101121","name":"All Souls CofE Primary School","postcode":"W1W 7JJ","phase":"Primary","lat":51.51985,"lng":-0.13863},{"urn":"101122","name":"Burdett-Coutts and Townshend Foundation CofE Primary School","postcode":"SW1P 2QQ","phase":"Primary","lat":51.49513,"lng":-0.13523},{"urn":"101123","name":"Hampden Gurney CofE Primary School","postcode":"W1H 5HA","phase":"Primary","lat":51.51681,"lng":-0.16445},{"urn":"101125","name":"St Augustines Federated Schools: CofE Primary School","postcode":"NW6 5XA","phase":"Primary","lat":51.53453,"lng":-0.19158},{"urn":"101126","name":"St Barnabas' CofE Primary School","postcode":"SW1W 8PF","phase":"Primary","lat":51.49053,"lng":-0.15165},{"urn":"101127","name":"St Clement Danes CofE Primary School","postcode":"WC2B 5SU","phase":"Primary","lat":51.51356,"lng":-0.11916},{"urn":"101128","name":"St Edward's Catholic Primary School","postcode":"NW1 6LH","phase":"Primary","lat":51.52333,"lng":-0.1657},{"urn":"101129","name":"St Gabriel's CofE Primary School","postcode":"SW1V 3AG","phase":"Primary","lat":51.48635,"lng":-0.14256},{"urn":"101130","name":"St George's Hanover Square CofE Primary School","postcode":"W1K 2XH","phase":"Primary","lat":51.50882,"lng":-0.15012},{"urn":"101131","name":"Soho Parish CofE Primary School","postcode":"W1D 7LF","phase":"Primary","lat":51.51174,"lng":-0.13439},{"urn":"101132","name":"St James & St John Church of England Primary School","postcode":"W2 3QD","phase":"Primary","lat":51.51298,"lng":-0.17955},{"urn":"101134","name":"St Luke's CofE Primary School","postcode":"W9 3EJ","phase":"Primary","lat":51.53224,"lng":-0.20302},{"urn":"101135","name":"St Mary Magdalene & St Stephen's CofE Primary School","postcode":"W2 5TF","phase":"Primary","lat":51.52255,"lng":-0.18982},{"urn":"101136","name":"St Mary's Bryanston Square CofE School","postcode":"W1H 1DL","phase":"Primary","lat":51.52042,"lng":-0.16305},{"urn":"101137","name":"St. Mary of the Angels Catholic Primary School","postcode":"W2 5PR","phase":"Primary","lat":51.51792,"lng":-0.19795},{"urn":"101138","name":"St Matthew's School, Westminster","postcode":"SW1P 2DG","phase":"Primary","lat":51.49739,"lng":-0.13112},{"urn":"101139","name":"St Peter's CofE School","postcode":"W9 2AN","phase":"Primary","lat":51.52414,"lng":-0.19697},{"urn":"101140","name":"St Peter's Eaton Square CofE Primary School","postcode":"SW1W 0NL","phase":"Primary","lat":51.49612,"lng":-0.14689},{"urn":"101141","name":"St Saviour's CofE Primary School","postcode":"W9 2JD","phase":"Primary","lat":51.52362,"lng":-0.18681},{"urn":"101143","name":"St Vincent's Catholic Primary School","postcode":"W1U 4DF","phase":"Primary","lat":51.51862,"lng":-0.15269},{"urn":"101147","name":"Christ Church Bentinck CofE Primary School","postcode":"NW1 5NS","phase":"Primary","lat":51.52145,"lng":-0.16638},{"urn":"101154","name":"St Augustine's Federated Schools: CE High School","postcode":"NW6 5SN","phase":"Secondary","lat":51.53428,"lng":-0.19244},{"urn":"101188","name":"Dorothy Barley Infants' School","postcode":"RM8 2LL","phase":"Primary","lat":51.54692,"lng":0.11534},{"urn":"101192","name":"Manor Junior School","postcode":"IG11 9AG","phase":"Primary","lat":51.54264,"lng":0.1015},{"urn":"101193","name":"Manor Primary School","postcode":"RM8 2FL","phase":"Primary","lat":51.54264,"lng":0.1015},{"urn":"101196","name":"Northbury Primary School","postcode":"IG11 8JA","phase":"Primary","lat":51.54136,"lng":0.07526},{"urn":"101198","name":"Ripple Primary School","postcode":"IG11 7QS","phase":"Primary","lat":51.53595,"lng":0.09075},{"urn":"101202","name":"Beam Primary School","postcode":"RM10 9ED","phase":"Primary","lat":51.52825,"lng":0.16401},{"urn":"101203","name":"Furze Infant School","postcode":"RM6 6ES","phase":"Primary","lat":51.57148,"lng":0.14009},{"urn":"101206","name":"Grafton Primary School","postcode":"RM8 3EX","phase":"Primary","lat":51.55881,"lng":0.1406},{"urn":"101211","name":"Marsh Green Primary School","postcode":"RM10 9NJ","phase":"Primary","lat":51.53116,"lng":0.15196},{"urn":"101212","name":"Rush Green Primary School","postcode":"RM7 0RL","phase":"Primary","lat":51.56312,"lng":0.17672},{"urn":"101216","name":"The Leys Primary School","postcode":"RM10 9YR","phase":"Primary","lat":51.53569,"lng":0.16798},{"urn":"101219","name":"Warren Junior School","postcode":"RM6 6DA","phase":"Primary","lat":51.57626,"lng":0.14266},{"urn":"101220","name":"Thomas Arnold Primary School, Rowdowns Road","postcode":"RM9 6NH","phase":"Primary","lat":51.53696,"lng":0.14504},{"urn":"101222","name":"Valence Primary School","postcode":"RM8 3AR","phase":"Primary","lat":51.55799,"lng":0.13197},{"urn":"101223","name":"Village Infants' School","postcode":"RM10 9JS","phase":"Primary","lat":51.53871,"lng":0.15258},{"urn":"101224","name":"Rose Lane Primary School","postcode":"RM6 5NJ","phase":"Primary","lat":51.58588,"lng":0.13584},{"urn":"101226","name":"William Bellamy Primary School","postcode":"RM10 7HX","phase":"Primary","lat":51.55917,"lng":0.15433},{"urn":"101227","name":"Parsloes Primary School","postcode":"RM9 5RH","phase":"Primary","lat":51.54364,"lng":0.14432},{"urn":"101228","name":"Five Elms Primary School","postcode":"RM9 5TB","phase":"Primary","lat":51.55509,"lng":0.14536},{"urn":"101229","name":"Henry Green Primary School","postcode":"RM8 1UR","phase":"Primary","lat":51.56183,"lng":0.12767},{"urn":"101230","name":"Roding Primary School","postcode":"RM8 2XS","phase":"Primary","lat":51.54936,"lng":0.12624},{"urn":"101231","name":"Becontree Primary School","postcode":"RM8 2QR","phase":"Primary","lat":51.55683,"lng":0.11738},{"urn":"101232","name":"John Perry Primary School","postcode":"RM10 8UR","phase":"Primary","lat":51.54198,"lng":0.17085},{"urn":"101234","name":"William Ford CofE Junior School","postcode":"RM10 9JS","phase":"Primary","lat":51.53871,"lng":0.15258},{"urn":"101237","name":"St Peter's Catholic Primary School","postcode":"RM9 6UU","phase":"Primary","lat":51.53189,"lng":0.1444},{"urn":"101241","name":"Barking Abbey School, A Specialist Sports and Humanities College","postcode":"IG11 9AG","phase":"Secondary","lat":51.54264,"lng":0.1015},{"urn":"101243","name":"Eastbrook School","postcode":"RM10 7UR","phase":"All-through","lat":51.55148,"lng":0.1637},{"urn":"101244","name":"Eastbury Community School","postcode":"IG11 9UW","phase":"All-through","lat":51.54247,"lng":0.09024},{"urn":"101245","name":"Robert Clack School","postcode":"RM8 1JU","phase":"All-through","lat":51.56268,"lng":0.15396},{"urn":"101247","name":"All Saints Catholic School and Technology College","postcode":"RM8 1JT","phase":"Secondary","lat":51.56272,"lng":0.15129},{"urn":"101251","name":"Brookhill Nursery School","postcode":"EN4 8SD","phase":"Nursery","lat":51.64508,"lng":-0.16465},{"urn":"101252","name":"Hampden Way Nursery School","postcode":"N14 5DJ","phase":"Nursery","lat":51.6316,"lng":-0.14205},{"urn":"101253","name":"Moss Hall Nursery School","postcode":"N3 1NR","phase":"Nursery","lat":51.61066,"lng":-0.18654},{"urn":"101254","name":"St Margaret's Nursery School","postcode":"EN4 9NT","phase":"Nursery","lat":51.64906,"lng":-0.16824},{"urn":"101258","name":"Barnfield Primary School","postcode":"HA8 0DA","phase":"Primary","lat":51.60074,"lng":-0.26465},{"urn":"101262","name":"Brookland Junior School","postcode":"NW11 6EJ","phase":"Primary","lat":51.59024,"lng":-0.18836},{"urn":"101263","name":"Brookland Infant and Nursery School","postcode":"NW11 6EJ","phase":"Primary","lat":51.59024,"lng":-0.18836},{"urn":"101264","name":"Brunswick Park Primary and Nursery School","postcode":"N14 5DU","phase":"Primary","lat":51.63023,"lng":-0.14814},{"urn":"101266","name":"Church Hill School","postcode":"EN4 8NN","phase":"Primary","lat":51.63527,"lng":-0.15927},{"urn":"101269","name":"Colindale Primary School","postcode":"NW9 6DT","phase":"Primary","lat":51.58874,"lng":-0.24707},{"urn":"101270","name":"Coppetts Wood Primary School","postcode":"N10 1JS","phase":"Primary","lat":51.60278,"lng":-0.15198},{"urn":"101271","name":"Courtland School","postcode":"NW7 3BG","phase":"Primary","lat":51.62729,"lng":-0.25255},{"urn":"101272","name":"Cromer Road Primary School","postcode":"EN5 5HT","phase":"Primary","lat":51.65323,"lng":-0.17849},{"urn":"101274","name":"Deansbrook Infant School","postcode":"NW7 3ED","phase":"Primary","lat":51.61307,"lng":-0.26077},{"urn":"101277","name":"Edgware Primary School","postcode":"HA8 9AB","phase":"Primary","lat":51.61009,"lng":-0.27531},{"urn":"101278","name":"Fairway Primary School and Children's Centre","postcode":"NW7 3HS","phase":"Primary","lat":51.62733,"lng":-0.25697},{"urn":"101279","name":"Foulds School","postcode":"EN5 4NR","phase":"Primary","lat":51.65657,"lng":-0.21018},{"urn":"101280","name":"Frith Manor Primary School","postcode":"N12 7BN","phase":"Primary","lat":51.61499,"lng":-0.20202},{"urn":"101281","name":"Garden Suburb Junior School","postcode":"NW11 6XU","phase":"Primary","lat":51.5849,"lng":-0.19752},{"urn":"101282","name":"Garden Suburb Infant School","postcode":"NW11 6XU","phase":"Primary","lat":51.5849,"lng":-0.19752},{"urn":"101283","name":"Goldbeaters Primary School","postcode":"HA8 0HA","phase":"Primary","lat":51.60408,"lng":-0.25723},{"urn":"101285","name":"Hollickwood Primary School","postcode":"N10 2NL","phase":"Primary","lat":51.605,"lng":-0.14405},{"urn":"101286","name":"Holly Park Primary School","postcode":"N11 3HG","phase":"Primary","lat":51.61697,"lng":-0.15105},{"urn":"101289","name":"Livingstone Primary and Nursery School","postcode":"EN4 9BU","phase":"Primary","lat":51.65551,"lng":-0.16663},{"urn":"101290","name":"Manorside Primary School","postcode":"N3 2AB","phase":"Primary","lat":51.60079,"lng":-0.18104},{"urn":"101293","name":"Monkfrith Primary School","postcode":"N14 5NG","phase":"Primary","lat":51.63675,"lng":-0.14635},{"urn":"101294","name":"Moss Hall Junior School","postcode":"N3 1NR","phase":"Primary","lat":51.60992,"lng":-0.18583},{"urn":"101295","name":"Moss Hall Infant School","postcode":"N12 8PE","phase":"Primary","lat":51.60992,"lng":-0.18583},{"urn":"101296","name":"Northside Primary School","postcode":"N12 8JP","phase":"Primary","lat":51.61603,"lng":-0.17937},{"urn":"101298","name":"Woodridge Primary School","postcode":"N12 7HE","phase":"Primary","lat":51.62393,"lng":-0.19371},{"urn":"101299","name":"Tudor Primary School","postcode":"N3 2AG","phase":"Primary","lat":51.60032,"lng":-0.17756},{"urn":"101301","name":"Underhill School","postcode":"EN5 2LZ","phase":"Primary","lat":51.64541,"lng":-0.20544},{"urn":"101304","name":"Whitings Hill Primary School","postcode":"EN5 2QY","phase":"Primary","lat":51.64551,"lng":-0.21819},{"urn":"101309","name":"Chalgrove Primary School","postcode":"N3 3PL","phase":"Primary","lat":51.59178,"lng":-0.20669},{"urn":"101311","name":"Sunnyfields Primary School","postcode":"NW4 4JH","phase":"Primary","lat":51.5911,"lng":-0.23174},{"urn":"101312","name":"Queenswell Infant & Nursery School","postcode":"N20 0NQ","phase":"Primary","lat":51.62709,"lng":-0.17009},{"urn":"101313","name":"Queenswell Junior School","postcode":"N20 0NQ","phase":"Primary","lat":51.62709,"lng":-0.17009},{"urn":"101314","name":"Danegrove Primary School","postcode":"EN4 8UD","phase":"Primary","lat":51.64358,"lng":-0.15872},{"urn":"101315","name":"All Saints' CofE Primary School NW2","postcode":"NW2 2TH","phase":"Primary","lat":51.56212,"lng":-0.19995},{"urn":"101316","name":"Christ Church Primary School","postcode":"EN5 4NS","phase":"Primary","lat":51.65886,"lng":-0.21203},{"urn":"101317","name":"Holy Trinity CofE Primary School","postcode":"N2 8GA","phase":"Primary","lat":51.59114,"lng":-0.16839},{"urn":"101318","name":"Monken Hadley CofE Primary School","postcode":"EN4 0NJ","phase":"Primary","lat":51.6629,"lng":-0.19076},{"urn":"101319","name":"St John's CofE Junior Mixed and Infant School","postcode":"N11 3LB","phase":"Primary","lat":51.6168,"lng":-0.15574},{"urn":"101321","name":"St John's CofE Primary and Nursery School","postcode":"N20 0PL","phase":"Primary","lat":51.6267,"lng":-0.17705},{"urn":"101323","name":"St Mary's CofE Primary School","postcode":"N3 1BT","phase":"Primary","lat":51.60357,"lng":-0.20013},{"urn":"101324","name":"St Mary's CofE Primary School, East Barnet","postcode":"EN4 8SR","phase":"Primary","lat":51.64102,"lng":-0.16149},{"urn":"101325","name":"St Paul's CofE Primary School N11","postcode":"N11 1NQ","phase":"Primary","lat":51.61624,"lng":-0.14424},{"urn":"101326","name":"St Paul's CofE Primary School NW7","postcode":"NW7 1QU","phase":"Primary","lat":51.62056,"lng":-0.23142},{"urn":"101327","name":"St Andrew's CofE Voluntary Aided Primary School, Totteridge","postcode":"N20 8NX","phase":"Primary","lat":51.63,"lng":-0.19641},{"urn":"101328","name":"Trent CofE Primary School","postcode":"EN4 9JH","phase":"Primary","lat":51.6509,"lng":-0.15274},{"urn":"101329","name":"All Saints' CofE Nursery and Primary School N20","postcode":"N20 9EZ","phase":"Primary","lat":51.629,"lng":-0.16776},{"urn":"101330","name":"The Annunciation Catholic Infant School","postcode":"HA8 0HQ","phase":"Primary","lat":51.60277,"lng":-0.26016},{"urn":"101331","name":"Our Lady of Lourdes RC School","postcode":"N12 0JP","phase":"Primary","lat":51.60323,"lng":-0.17597},{"urn":"101332","name":"St Agnes' Catholic Primary School","postcode":"NW2 1RG","phase":"Primary","lat":51.56036,"lng":-0.2108},{"urn":"101333","name":"St Catherine's RC School","postcode":"EN5 2ED","phase":"Primary","lat":51.64878,"lng":-0.1937},{"urn":"101334","name":"St Vincent's Catholic Primary School","postcode":"NW7 1EJ","phase":"Primary","lat":51.61786,"lng":-0.22342},{"urn":"101335","name":"St Theresa's Catholic Primary School","postcode":"N3 2TD","phase":"Primary","lat":51.59476,"lng":-0.18844},{"urn":"101337","name":"St Joseph's Catholic Primary School","postcode":"NW4 4TY","phase":"Primary","lat":51.58729,"lng":-0.23141},{"urn":"101338","name":"Sacred Heart Roman Catholic Primary School","postcode":"N20 9JU","phase":"Primary","lat":51.6304,"lng":-0.16321},{"urn":"101339","name":"Blessed Dominic Catholic Primary School","postcode":"NW9 5PE","phase":"Primary","lat":51.60083,"lng":-0.24096},{"urn":"101340","name":"Rosh Pinah Primary School","postcode":"HA8 8TE","phase":"Primary","lat":51.62702,"lng":-0.27062},{"urn":"101341","name":"Menorah Primary School for Girls","postcode":"NW11 9SP","phase":"Primary","lat":51.57449,"lng":-0.207},{"urn":"101342","name":"The Annunciation RC Junior School","postcode":"HA8 9HQ","phase":"Primary","lat":51.61182,"lng":-0.25807},{"urn":"101345","name":"Friern Barnet School","postcode":"N11 3LS","phase":"Secondary","lat":51.61596,"lng":-0.15476},{"urn":"101361","name":"St Michael's Catholic Grammar School","postcode":"N12 7NJ","phase":"Secondary","lat":51.61432,"lng":-0.18076},{"urn":"101362","name":"Finchley Catholic High School","postcode":"N12 8TA","phase":"Secondary","lat":51.62283,"lng":-0.18094},{"urn":"101364","name":"St James' Catholic High School","postcode":"NW9 5PE","phase":"Secondary","lat":51.60079,"lng":-0.24093},{"urn":"101376","name":"Mathilda Marks-Kennedy Jewish Primary School","postcode":"NW7 3RT","phase":"Primary","lat":51.61562,"lng":-0.25489},{"urn":"101402","name":"Crook Log Primary School","postcode":"DA6 8EQ","phase":"Primary","lat":51.458,"lng":0.12654},{"urn":"101403","name":"Danson Primary School","postcode":"DA16 2BH","phase":"Primary","lat":51.45733,"lng":0.10661},{"urn":"101413","name":"Upton Primary School","postcode":"DA5 1HH","phase":"Primary","lat":51.44938,"lng":0.13501},{"urn":"101426","name":"Birkbeck Primary School","postcode":"DA14 4ED","phase":"Primary","lat":51.43193,"lng":0.10581},{"urn":"101429","name":"Longlands Primary School","postcode":"DA15 7JG","phase":"Primary","lat":51.43119,"lng":0.09041},{"urn":"101434","name":"Dulverton Primary School","postcode":"SE9 3RH","phase":"Primary","lat":51.43639,"lng":0.08044},{"urn":"101437","name":"Parkway Primary School","postcode":"DA18 4DP","phase":"Primary","lat":51.4928,"lng":0.13408},{"urn":"101451","name":"Foster's Primary School","postcode":"DA16 1PN","phase":"Primary","lat":51.46309,"lng":0.12181},{"urn":"101455","name":"St Stephen's Catholic Primary School","postcode":"DA16 3QG","phase":"Primary","lat":51.46443,"lng":0.10447},{"urn":"101456","name":"Our Lady of the Rosary Catholic Primary School","postcode":"DA15 8QW","phase":"Primary","lat":51.44756,"lng":0.09176},{"urn":"101457","name":"St Joseph's Catholic Primary School","postcode":"DA1 4DZ","phase":"Primary","lat":51.45396,"lng":0.17201},{"urn":"101458","name":"St Fidelis Catholic Primary School","postcode":"DA8 3HQ","phase":"Primary","lat":51.47763,"lng":0.16275},{"urn":"101460","name":"St John Fisher Catholic Primary School","postcode":"DA18 4BA","phase":"Primary","lat":51.495,"lng":0.13221},{"urn":"101489","name":"Curzon Nursery School & Family Wellbeing Centre","postcode":"NW10 9SD","phase":"Nursery","lat":51.54538,"lng":-0.25074},{"urn":"101490","name":"Fawood Nursery School & Family Wellbeing Centre","postcode":"NW10 8DX","phase":"Nursery","lat":51.54344,"lng":-0.26266},{"urn":"101491","name":"College Green School and Services","postcode":"NW10 3PH","phase":"Nursery","lat":51.53691,"lng":-0.22765},{"urn":"101492","name":"Granville Plus Nursery School","postcode":"NW6 5RA","phase":"Nursery","lat":51.53279,"lng":-0.1981},{"urn":"101494","name":"Peel Park Primary School and Nursery","postcode":"BD2 4PR","phase":"Primary","lat":53.80733,"lng":-1.735},{"urn":"101495","name":"Anson Primary School","postcode":"NW2 4AB","phase":"Primary","lat":51.55363,"lng":-0.21934},{"urn":"101496","name":"Brentfield Primary School","postcode":"NW10 0SL","phase":"Primary","lat":51.5468,"lng":-0.26293},{"urn":"101498","name":"Carlton Vale Infant School","postcode":"NW6 5PX","phase":"Primary","lat":51.53176,"lng":-0.20023},{"urn":"101499","name":"Harlesden Primary School","postcode":"NW10 8UT","phase":"Primary","lat":51.53709,"lng":-0.2548},{"urn":"101500","name":"Mount Stewart Junior School","postcode":"HA3 0JX","phase":"Primary","lat":51.57813,"lng":-0.30084},{"urn":"101501","name":"Mount Stewart Infant School","postcode":"HA3 0JX","phase":"Primary","lat":51.57852,"lng":-0.30177},{"urn":"101502","name":"Uxendon Manor Primary School","postcode":"HA3 0UX","phase":"Primary","lat":51.5834,"lng":-0.29793},{"urn":"101503","name":"Kingsbury Green Primary School","postcode":"NW9 9ND","phase":"Primary","lat":51.58329,"lng":-0.26977},{"urn":"101504","name":"Leopold Primary School","postcode":"NW10 9UR","phase":"Primary","lat":51.54444,"lng":-0.24689},{"urn":"101506","name":"Lyon Park Primary School","postcode":"HA0 4HH","phase":"Primary","lat":51.54345,"lng":-0.28794},{"urn":"101507","name":"Malorees Primary School","postcode":"NW6 7PB","phase":"Primary","lat":51.54146,"lng":-0.2138},{"urn":"101508","name":"Northview Junior and Infant School","postcode":"NW10 1RD","phase":"Primary","lat":51.55576,"lng":-0.24753},{"urn":"101509","name":"Park Lane Primary School","postcode":"HA9 7RY","phase":"Primary","lat":51.55584,"lng":-0.29389},{"urn":"101510","name":"Preston Park Primary School","postcode":"HA9 8RJ","phase":"Primary","lat":51.57146,"lng":-0.29935},{"urn":"101511","name":"Roe Green Junior School","postcode":"NW9 9JL","phase":"Primary","lat":51.59008,"lng":-0.27227},{"urn":"101512","name":"Roe Green Infant School","postcode":"NW9 9JL","phase":"Primary","lat":51.59008,"lng":-0.27227},{"urn":"101515","name":"Barham Primary School","postcode":"HA0 4RQ","phase":"Primary","lat":51.54844,"lng":-0.30675},{"urn":"101518","name":"Wykeham Primary School","postcode":"NW10 0EX","phase":"Primary","lat":51.56283,"lng":-0.25476},{"urn":"101519","name":"Elsley Primary School","postcode":"HA9 6HT","phase":"Primary","lat":51.5488,"lng":-0.28689},{"urn":"101520","name":"Donnington Primary School","postcode":"NW10 3TL","phase":"Primary","lat":51.54182,"lng":-0.23349},{"urn":"101521","name":"The Stonebridge School","postcode":"NW10 8NG","phase":"Primary","lat":51.5406,"lng":-0.26367},{"urn":"101522","name":"Newfield Primary School","postcode":"NW10 3UD","phase":"Primary","lat":51.54196,"lng":-0.244},{"urn":"101524","name":"Mitchell Brook Primary School","postcode":"NW10 9BX","phase":"Primary","lat":51.54886,"lng":-0.25615},{"urn":"101526","name":"Chalkhill Primary School","postcode":"HA9 9YP","phase":"Primary","lat":51.56204,"lng":-0.27063},{"urn":"101527","name":"Salusbury Primary School","postcode":"NW6 6RG","phase":"Primary","lat":51.53694,"lng":-0.20542},{"urn":"101528","name":"Oliver Goldsmith Primary School","postcode":"NW9 0BD","phase":"Primary","lat":51.58296,"lng":-0.25774},{"urn":"101530","name":"Mora Primary School","postcode":"NW2 6TD","phase":"Primary","lat":51.55888,"lng":-0.22502},{"urn":"101531","name":"Fryent Primary School","postcode":"NW9 8JD","phase":"Primary","lat":51.57713,"lng":-0.26404},{"urn":"101533","name":"Christ Church CofE Primary School","postcode":"NW6 7TE","phase":"Primary","lat":51.54133,"lng":-0.20465},{"urn":"101534","name":"John Keble CofE Primary School","postcode":"NW10 4DR","phase":"Primary","lat":51.53799,"lng":-0.24703},{"urn":"101535","name":"Princess Frederica CofE Primary School","postcode":"NW10 5TP","phase":"Primary","lat":51.53302,"lng":-0.22534},{"urn":"101537","name":"St Mary's CofE Primary School","postcode":"NW10 9JA","phase":"Primary","lat":51.54835,"lng":-0.25217},{"urn":"101539","name":"St Joseph's Catholic Junior School","postcode":"HA9 6BE","phase":"Primary","lat":51.55213,"lng":-0.28793},{"urn":"101542","name":"St Mary Magdalen's Catholic Junior School","postcode":"NW2 5BB","phase":"Primary","lat":51.54775,"lng":-0.22851},{"urn":"101543","name":"St Robert Southwell Catholic Primary School","postcode":"NW9 8YD","phase":"Primary","lat":51.58176,"lng":-0.26808},{"urn":"101544","name":"Convent of Jesus and Mary RC Infant School","postcode":"NW2 5AN","phase":"Primary","lat":51.54793,"lng":-0.22719},{"urn":"101545","name":"Our Lady of Lourdes Catholic Primary School","postcode":"NW10 8PP","phase":"Primary","lat":51.54077,"lng":-0.26502},{"urn":"101546","name":"St Joseph's Catholic Infant School","postcode":"HA9 6TA","phase":"Primary","lat":51.55182,"lng":-0.28771},{"urn":"101549","name":"Sinai Jewish Primary School","postcode":"HA3 9UD","phase":"Primary","lat":51.57958,"lng":-0.28202},{"urn":"101555","name":"St Joseph's Roman Catholic Primary School","postcode":"NW10 9LS","phase":"Primary","lat":51.54424,"lng":-0.25093},{"urn":"101556","name":"The Kilburn Park School Foundation","postcode":"NW6 5RG","phase":"Primary","lat":51.53216,"lng":-0.19963},{"urn":"101564","name":"Newman Catholic College","postcode":"NW10 3RN","phase":"Secondary","lat":51.53762,"lng":-0.23919},{"urn":"101574","name":"Islamia Primary School","postcode":"NW6 6PE","phase":"Primary","lat":51.53951,"lng":-0.20805},{"urn":"101635","name":"Edgebury Primary School","postcode":"BR7 6BL","phase":"Primary","lat":51.42557,"lng":0.07214},{"urn":"101641","name":"Poverest Primary School","postcode":"BR5 2JD","phase":"Primary","lat":51.3915,"lng":0.10117},{"urn":"101676","name":"St Olave's and St Saviour's Grammar School","postcode":"BR6 9SH","phase":"Secondary","lat":51.36642,"lng":0.10391},{"urn":"101702","name":"Crosfield Nursery School","postcode":"SE25 5BD","phase":"Nursery","lat":51.39363,"lng":-0.07127},{"urn":"101704","name":"Purley Nursery School","postcode":"CR8 2NE","phase":"Nursery","lat":51.34146,"lng":-0.11376},{"urn":"101705","name":"Tunstall Nursery School","postcode":"CR0 6TY","phase":"Nursery","lat":51.37865,"lng":-0.08397},{"urn":"101712","name":"Beulah Junior School","postcode":"CR7 8JF","phase":"Primary","lat":51.40431,"lng":-0.09908},{"urn":"101720","name":"Elmwood Junior School","postcode":"CR0 2PL","phase":"Primary","lat":51.38617,"lng":-0.10587},{"urn":"101721","name":"Elmwood Infant School","postcode":"CR0 2PL","phase":"Primary","lat":51.38617,"lng":-0.10587},{"urn":"101725","name":"Howard Primary School","postcode":"CR0 1DT","phase":"Primary","lat":51.3646,"lng":-0.10165},{"urn":"101733","name":"Purley Oaks Primary School","postcode":"CR2 0PR","phase":"Primary","lat":51.35312,"lng":-0.09609},{"urn":"101745","name":"Winterbourne Junior Girls' School","postcode":"CR7 7QT","phase":"Primary","lat":51.39931,"lng":-0.11472},{"urn":"101746","name":"Winterbourne Nursery and Infants' School","postcode":"CR7 7QT","phase":"Primary","lat":51.39931,"lng":-0.11472},{"urn":"101756","name":"Beaumont Primary School","postcode":"CR8 4DN","phase":"Primary","lat":51.32815,"lng":-0.12111},{"urn":"101758","name":"Gresham Primary School","postcode":"CR2 9EA","phase":"Primary","lat":51.33369,"lng":-0.07782},{"urn":"101759","name":"Smitham Primary School","postcode":"CR5 3DE","phase":"Primary","lat":51.31866,"lng":-0.14397},{"urn":"101760","name":"The Hayes Primary School","postcode":"CR8 5JN","phase":"Primary","lat":51.31672,"lng":-0.10895},{"urn":"101773","name":"Forestdale Primary School","postcode":"CR0 9JE","phase":"Primary","lat":51.34935,"lng":-0.03944},{"urn":"101776","name":"Heavers Farm Primary School","postcode":"SE25 6LT","phase":"Primary","lat":51.39331,"lng":-0.08139},{"urn":"101778","name":"Downsview Primary and Nursery School","postcode":"SE19 3XE","phase":"Primary","lat":51.41527,"lng":-0.10194},{"urn":"101779","name":"Park Hill Infant School","postcode":"CR0 5NS","phase":"Primary","lat":51.37087,"lng":-0.08921},{"urn":"101781","name":"Greenvale Primary School","postcode":"CR2 8PR","phase":"Primary","lat":51.33928,"lng":-0.05187},{"urn":"101783","name":"Rockmount Primary School","postcode":"SE19 3ST","phase":"Primary","lat":51.41945,"lng":-0.08978},{"urn":"101785","name":"Norbury Manor Primary School","postcode":"SW16 5QR","phase":"Primary","lat":51.41008,"lng":-0.12812},{"urn":"101787","name":"All Saints CofE Primary School","postcode":"SE19 3LG","phase":"Primary","lat":51.41223,"lng":-0.08658},{"urn":"101788","name":"St John's CofE Primary School","postcode":"CR0 5EL","phase":"Primary","lat":51.37289,"lng":-0.0497},{"urn":"101792","name":"Coulsdon CofE Primary School","postcode":"CR5 1ED","phase":"Primary","lat":51.30819,"lng":-0.12372},{"urn":"101793","name":"Christ Church CofE Primary School (Purley)","postcode":"CR8 2QE","phase":"Primary","lat":51.34267,"lng":-0.11088},{"urn":"101795","name":"St Joseph's RC Junior School","postcode":"SE19 3NU","phase":"Primary","lat":51.42128,"lng":-0.09955},{"urn":"101797","name":"Margaret Roper Catholic Primary School","postcode":"CR8 2XP","phase":"Primary","lat":51.34406,"lng":-0.12017},{"urn":"101803","name":"St Joseph's RC Infant School","postcode":"SE19 3NX","phase":"Primary","lat":51.4221,"lng":-0.0993},{"urn":"101811","name":"Archbishop Tenison's CofE High School","postcode":"CR0 5JQ","phase":"Secondary","lat":51.36945,"lng":-0.08191},{"urn":"101814","name":"St Mary's Catholic High School","postcode":"CR9 2EE","phase":"Secondary","lat":51.38062,"lng":-0.09803},{"urn":"101815","name":"Selsdon Primary and Nursery School","postcode":"CR2 8LQ","phase":"Primary","lat":51.34695,"lng":-0.0559},{"urn":"101821","name":"Thomas More Catholic School","postcode":"CR8 2XP","phase":"Secondary","lat":51.34406,"lng":-0.12017},{"urn":"101858","name":"Maples Nursery School and Children's Centre","postcode":"W3 7LL","phase":"Nursery","lat":51.50894,"lng":-0.2613},{"urn":"101860","name":"Grove House Nursery School & Children's Centre","postcode":"UB1 2JG","phase":"Nursery","lat":51.51251,"lng":-0.37241},{"urn":"101861","name":"South Acton Childrens Centre","postcode":"W3 8RX","phase":"Nursery","lat":51.5038,"lng":-0.27353},{"urn":"101862","name":"Greenfields Nursery School and Children's Centre","postcode":"UB2 5PF","phase":"Nursery","lat":51.4979,"lng":-0.38735},{"urn":"101867","name":"Acton Gardens Primary School","postcode":"W3 8SJ","phase":"Primary","lat":51.50303,"lng":-0.27324},{"urn":"101868","name":"East Acton Primary School","postcode":"W3 7HA","phase":"Primary","lat":51.51143,"lng":-0.25627},{"urn":"101869","name":"Oldfield Primary School","postcode":"UB6 8PR","phase":"Primary","lat":51.53734,"lng":-0.34693},{"urn":"101870","name":"North Ealing Primary School","postcode":"W5 1RP","phase":"Primary","lat":51.52609,"lng":-0.31757},{"urn":"101873","name":"St John's Primary School","postcode":"W13 0SE","phase":"Primary","lat":51.51204,"lng":-0.32408},{"urn":"101874","name":"St Mark's Primary School","postcode":"W7 2NR","phase":"Primary","lat":51.50693,"lng":-0.34063},{"urn":"101875","name":"West Twyford Primary School","postcode":"NW10 7DN","phase":"Primary","lat":51.53423,"lng":-0.28325},{"urn":"101876","name":"West Acton Primary School","postcode":"W3 0JL","phase":"Primary","lat":51.51747,"lng":-0.27846},{"urn":"101877","name":"Mayfield Primary School","postcode":"W7 3RT","phase":"Primary","lat":51.52068,"lng":-0.34802},{"urn":"101878","name":"Beaconsfield Primary and Nursery School","postcode":"UB1 1DR","phase":"Primary","lat":51.50767,"lng":-0.38235},{"urn":"101879","name":"Coston Primary School","postcode":"UB6 9JU","phase":"Primary","lat":51.53387,"lng":-0.35077},{"urn":"101880","name":"Downe Manor Primary School","postcode":"UB5 6NW","phase":"Primary","lat":51.53381,"lng":-0.40415},{"urn":"101881","name":"Drayton Green Primary School","postcode":"W13 0LA","phase":"Primary","lat":51.51506,"lng":-0.3247},{"urn":"101884","name":"North Primary School","postcode":"UB1 2JE","phase":"Primary","lat":51.51283,"lng":-0.37375},{"urn":"101885","name":"Ravenor Primary School","postcode":"UB6 9TT","phase":"Primary","lat":51.53293,"lng":-0.36631},{"urn":"101886","name":"Selborne Primary School","postcode":"UB6 8JD","phase":"Primary","lat":51.53707,"lng":-0.33488},{"urn":"101887","name":"Hambrough Primary School","postcode":"UB1 1SF","phase":"Primary","lat":51.50839,"lng":-0.37812},{"urn":"101888","name":"Hobbayne Primary School","postcode":"W7 1HA","phase":"Primary","lat":51.51679,"lng":-0.33702},{"urn":"101889","name":"John Perryn Primary School","postcode":"W3 7PD","phase":"Primary","lat":51.51896,"lng":-0.25558},{"urn":"101890","name":"Southfield Primary School","postcode":"W4 1BD","phase":"Primary","lat":51.50136,"lng":-0.25693},{"urn":"101891","name":"Allenby Primary School","postcode":"UB1 2HX","phase":"Primary","lat":51.51998,"lng":-0.36559},{"urn":"101892","name":"Blair Peach Primary School","postcode":"UB1 1DD","phase":"Primary","lat":51.50774,"lng":-0.38309},{"urn":"101893","name":"Clifton Primary School","postcode":"UB2 5QP","phase":"Primary","lat":51.49816,"lng":-0.38242},{"urn":"101894","name":"Dairy Meadow Primary School","postcode":"UB2 4RP","phase":"Primary","lat":51.5019,"lng":-0.37322},{"urn":"101895","name":"Derwentwater Primary School","postcode":"W3 6SA","phase":"Primary","lat":51.51021,"lng":-0.26927},{"urn":"101896","name":"Durdans Park Primary School","postcode":"UB1 2PQ","phase":"Primary","lat":51.52339,"lng":-0.37612},{"urn":"101897","name":"Fielding Primary School","postcode":"W13 9TE","phase":"Primary","lat":51.50105,"lng":-0.32069},{"urn":"101898","name":"Gifford Primary School","postcode":"UB5 6BU","phase":"Primary","lat":51.53611,"lng":-0.37391},{"urn":"101899","name":"Greenwood Primary School","postcode":"UB5 4QG","phase":"Primary","lat":51.55383,"lng":-0.35045},{"urn":"101900","name":"Havelock Primary School, Nursery & Arp","postcode":"UB2 4PA","phase":"Primary","lat":51.50092,"lng":-0.37488},{"urn":"101901","name":"Horsenden Primary School","postcode":"UB6 0PB","phase":"Primary","lat":51.55011,"lng":-0.33713},{"urn":"101902","name":"Willow Tree Primary School","postcode":"UB5 5FE","phase":"Primary","lat":51.55017,"lng":-0.37972},{"urn":"101903","name":"Lady Margaret Primary School","postcode":"UB1 2NH","phase":"Primary","lat":51.5237,"lng":-0.37314},{"urn":"101904","name":"Little Ealing Primary School","postcode":"W5 4EA","phase":"Primary","lat":51.49821,"lng":-0.30878},{"urn":"101905","name":"Oaklands Primary School","postcode":"W7 2DP","phase":"Primary","lat":51.5051,"lng":-0.33126},{"urn":"101906","name":"Perivale Primary School","postcode":"UB6 7AP","phase":"Primary","lat":51.5374,"lng":-0.31132},{"urn":"101907","name":"Stanhope Primary School","postcode":"UB6 9EG","phase":"Primary","lat":51.52695,"lng":-0.35598},{"urn":"101908","name":"Viking Primary School","postcode":"UB5 6HW","phase":"Primary","lat":51.53342,"lng":-0.39263},{"urn":"101909","name":"Wolf Fields Primary School","postcode":"UB2 4JS","phase":"Primary","lat":51.49609,"lng":-0.37488},{"urn":"101910","name":"Featherstone Primary and Nursery School","postcode":"UB2 5JT","phase":"Primary","lat":51.49809,"lng":-0.39556},{"urn":"101911","name":"Three Bridges Primary School","postcode":"UB2 4HT","phase":"Primary","lat":51.50068,"lng":-0.36482},{"urn":"101912","name":"Montpelier Primary School","postcode":"W5 2QT","phase":"Primary","lat":51.52354,"lng":-0.30368},{"urn":"101913","name":"Tudor Primary School","postcode":"UB1 1NX","phase":"Primary","lat":51.51466,"lng":-0.3847},{"urn":"101916","name":"Vicar's Green Primary School","postcode":"HA0 1DP","phase":"Primary","lat":51.53481,"lng":-0.31058},{"urn":"101927","name":"The Edward Betham Church of England Primary School","postcode":"UB6 9JU","phase":"Primary","lat":51.53387,"lng":-0.35077},{"urn":"101928","name":"Villiers High School","postcode":"UB1 3BT","phase":"Secondary","lat":51.50881,"lng":-0.37406},{"urn":"101934","name":"The Cardinal Wiseman Catholic School","postcode":"UB6 9AW","phase":"Secondary","lat":51.52522,"lng":-0.35202},{"urn":"101939","name":"Brentside High School","postcode":"W7 1JJ","phase":"Secondary","lat":51.52652,"lng":-0.33984},{"urn":"101940","name":"Greenford High School","postcode":"UB1 2GU","phase":"Secondary","lat":51.53114,"lng":-0.36974},{"urn":"101941","name":"The Ellen Wilkinson School for Girls","postcode":"W3 0HW","phase":"Secondary","lat":51.5169,"lng":-0.2879},{"urn":"101943","name":"Islip Manor High School","postcode":"UB5 4HP","phase":"Secondary","lat":51.55241,"lng":-0.37609},{"urn":"101981","name":"Capel Manor Primary School","postcode":"EN1 4RL","phase":"Primary","lat":51.6787,"lng":-0.05459},{"urn":"101983","name":"Carterhatch Infant School","postcode":"EN1 4JY","phase":"Primary","lat":51.66103,"lng":-0.05586},{"urn":"101984","name":"Chase Side Primary School","postcode":"EN2 6NS","phase":"Primary","lat":51.65908,"lng":-0.08945},{"urn":"101989","name":"Firs Farm Primary School","postcode":"N13 5QP","phase":"Primary","lat":51.62392,"lng":-0.08281},{"urn":"101992","name":"Garfield Primary School","postcode":"N11 1BH","phase":"Primary","lat":51.61391,"lng":-0.13626},{"urn":"101993","name":"George Spicer Primary School","postcode":"EN1 1YF","phase":"Primary","lat":51.65132,"lng":-0.068},{"urn":"101994","name":"Hadley Wood Primary School","postcode":"EN4 0HT","phase":"Primary","lat":51.67019,"lng":-0.17318},{"urn":"101996","name":"Hazelwood Junior School","postcode":"N13 5HE","phase":"Primary","lat":51.61763,"lng":-0.10295},{"urn":"101997","name":"Hazelwood Infant School","postcode":"N13 5HE","phase":"Primary","lat":51.61763,"lng":-0.10295},{"urn":"102002","name":"Prince of Wales Primary School","postcode":"EN3 6HG","phase":"Primary","lat":51.66902,"lng":-0.02365},{"urn":"102003","name":"The Raglan Junior School","postcode":"EN1 2RG","phase":"Primary","lat":51.63697,"lng":-0.07206},{"urn":"102004","name":"Raglan Infant School","postcode":"EN1 2NS","phase":"Primary","lat":51.63661,"lng":-0.07267},{"urn":"102005","name":"Suffolks Primary School","postcode":"EN1 3PU","phase":"Primary","lat":51.65765,"lng":-0.0551},{"urn":"102006","name":"Tottenhall Infant School","postcode":"N13 6HX","phase":"Primary","lat":51.611,"lng":-0.10592},{"urn":"102014","name":"Southbury Primary School","postcode":"EN3 4JG","phase":"Primary","lat":51.64972,"lng":-0.04865},{"urn":"102024","name":"Bush Hill Park Primary School","postcode":"EN1 1DS","phase":"Primary","lat":51.64511,"lng":-0.0629},{"urn":"102026","name":"St Michael at Bowes CofE Junior School","postcode":"N13 6JB","phase":"Primary","lat":51.61103,"lng":-0.10522},{"urn":"102027","name":"St John's CofE Primary School","postcode":"EN2 9BD","phase":"Primary","lat":51.67422,"lng":-0.0954},{"urn":"102028","name":"Forty Hill CofE Primary School","postcode":"EN2 9EY","phase":"Primary","lat":51.67097,"lng":-0.06106},{"urn":"102029","name":"St Andrew's CofE Primary School","postcode":"EN1 3UL","phase":"Primary","lat":51.6579,"lng":-0.07713},{"urn":"102030","name":"St Andrew's Southgate Primary School (CE)","postcode":"N14 6JA","phase":"Primary","lat":51.63415,"lng":-0.12786},{"urn":"102031","name":"Freezywater St George's CofE VA Primary School","postcode":"EN3 6NR","phase":"Primary","lat":51.67396,"lng":-0.03868},{"urn":"102032","name":"St John and St James CofE Primary School","postcode":"N18 2TL","phase":"Primary","lat":51.61047,"lng":-0.06661},{"urn":"102033","name":"St James CofE Primary School","postcode":"EN3 7HH","phase":"Primary","lat":51.65741,"lng":-0.04583},{"urn":"102034","name":"St Michael's CofE Primary School","postcode":"EN2 0NB","phase":"Primary","lat":51.66407,"lng":-0.0882},{"urn":"102035","name":"St Paul's CofE Primary School","postcode":"N21 2RA","phase":"Primary","lat":51.63474,"lng":-0.09938},{"urn":"102036","name":"St Mary's Catholic Primary School","postcode":"EN3 7DE","phase":"Primary","lat":51.64798,"lng":-0.03923},{"urn":"102037","name":"St Edmund's Catholic Primary School","postcode":"N9 7HJ","phase":"Primary","lat":51.6291,"lng":-0.05565},{"urn":"102038","name":"St George's Catholic Primary School","postcode":"EN2 0QA","phase":"Primary","lat":51.65921,"lng":-0.08099},{"urn":"102039","name":"St Monica's RC Primary School","postcode":"N14 7HE","phase":"Primary","lat":51.62273,"lng":-0.12035},{"urn":"102040","name":"Our Lady of Lourdes Catholic Primary School","postcode":"N11 1RD","phase":"Primary","lat":51.6156,"lng":-0.13625},{"urn":"102041","name":"Latymer All Saints CofE Primary School","postcode":"N9 9RS","phase":"Primary","lat":51.62577,"lng":-0.06866},{"urn":"102045","name":"Winchmore School","postcode":"N21 3HS","phase":"Secondary","lat":51.62833,"lng":-0.09221},{"urn":"102048","name":"Enfield County School for Girls","postcode":"EN2 6QG","phase":"Secondary","lat":51.65422,"lng":-0.08372},{"urn":"102049","name":"Chace Community School","postcode":"EN1 3HQ","phase":"Secondary","lat":51.6607,"lng":-0.07659},{"urn":"102052","name":"Bishop Stopford's School","postcode":"EN1 3PU","phase":"Secondary","lat":51.65736,"lng":-0.05444},{"urn":"102053","name":"St Anne's Catholic High School for Girls","postcode":"N13 5TY","phase":"Secondary","lat":51.6163,"lng":-0.10799},{"urn":"102054","name":"St Matthew's CofE Primary School","postcode":"EN3 4LA","phase":"Primary","lat":51.64355,"lng":-0.04373},{"urn":"102055","name":"The Latymer School","postcode":"N9 9TN","phase":"Secondary","lat":51.62602,"lng":-0.07414},{"urn":"102056","name":"Laurel Park School","postcode":"N14 7HY","phase":"Secondary","lat":51.61522,"lng":-0.12517},{"urn":"102058","name":"St Ignatius College","postcode":"EN1 4NP","phase":"Secondary","lat":51.67294,"lng":-0.05575},{"urn":"102071","name":"Pembury House Nursery School","postcode":"N17 9XE","phase":"Nursery","lat":51.59836,"lng":-0.06711},{"urn":"102072","name":"Rowland Hill Nursery School","postcode":"N17 7LT","phase":"Nursery","lat":51.60594,"lng":-0.08858},{"urn":"102073","name":"Woodlands Park Nursery School and Childrens Centre","postcode":"N15 3SD","phase":"Nursery","lat":51.58236,"lng":-0.09542},{"urn":"102078","name":"Belmont Junior School","postcode":"N22 6RA","phase":"Primary","lat":51.59211,"lng":-0.09417},{"urn":"102079","name":"Belmont Infant School","postcode":"N22 6RA","phase":"Primary","lat":51.59211,"lng":-0.09417},