[{"urn":"100000","name":"The Aldgate School","postcode":"EC3A 5DE","phase":"Primary","lat":51.51366,"lng":-0.07746},{"urn":"100005","name":"Thomas Coram Centre","postcode":"WC1N 2NY","phase":"Nursery","lat":51.52548,"lng":-0.12076},{"urn":"100008","name":"Argyle Primary School","postcode":"WC1H 9EG","phase":"Primary","lat":51.52875,"lng":-0.12401},{"urn":"100009","name":"West Hampstead Primary School","postcode":"NW6 1QL","phase":"Primary","lat":51.55067,"lng":-0.19948},{"urn":"100010","name":"Brecknock Primary School","postcode":"NW1 9AL","phase":"Primary","lat":51.54748,"lng":-0.12787},{"urn":"100011","name":"Brookfield Primary School","postcode":"N19 5DH","phase":"Primary","lat":51.56333,"lng":-0.14511},{"urn":"100013","name":"Edith Neville Primary School","postcode":"NW1 1HQ","phase":"Primary","lat":51.53279,"lng":-0.13058},{"urn":"100014","name":"Fleet Primary School","postcode":"NW3 2QT","phase":"Primary","lat":51.55345,"lng":-0.16085},{"urn":"100015","name":"Hawley Primary School","postcode":"NW1 8RP","phase":"Primary","lat":51.54272,"lng":-0.14383},{"urn":"100018","name":"Netley Primary School","postcode":"NW1 3EX","phase":"Primary","lat":51.52771,"lng":-0.14059},{"urn":"100019","name":"New End Primary School","postcode":"NW3 1HU","phase":"Primary","lat":51.55814,"lng":-0.17651},{"urn":"100020","name":"Primrose Hill School","postcode":"NW1 8JL","phase":"Primary","lat":51.53918,"lng":-0.15177},{"urn":"100021","name":"Rhyl Community Primary School","postcode":"NW5 3HB","phase":"Primary","lat":51.54772,"lng":-0.15056},{"urn":"100022","name":"Richard Cobden Primary School","postcode":"NW1 0LL","phase":"Primary","lat":51.5356,"lng":-0.13639},{"urn":"100023","name":"Torriano Primary School","postcode":"NW5 2SJ","phase":"Primary","lat":51.54968,"lng":-0.13281},{"urn":"100025","name":"Gospel Oak Primary School","postcode":"NW3 2JB","phase":"Primary","lat":51.55464,"lng":-0.15286},{"urn":"100026","name":"Fitzjohn's Primary School","postcode":"NW3 6NP","phase":"Primary","lat":51.5534,"lng":-0.17584},{"urn":"100027","name":"Eleanor Palmer Primary School","postcode":"NW5 2JA","phase":"Primary","lat":51.55437,"lng":-0.13907},{"urn":"100028","name":"Christ Church Primary School, Hampstead","postcode":"NW3 1JH","phase":"Primary","lat":51.55926,"lng":-0.1766},{"urn":"100029","name":"Christ Church School","postcode":"NW1 4BD","phase":"Primary","lat":51.53114,"lng":-0.14421},{"urn":"100030","name":"Emmanuel Church of England Primary School","postcode":"NW6 1TF","phase":"Primary","lat":51.55184,"lng":-0.19455},{"urn":"100031","name":"Hampstead Parochial Church of England Primary School","postcode":"NW3 6TX","phase":"Primary","lat":51.55644,"lng":-0.179},{"urn":"100032","name":"Holy Trinity CofE Primary School, NW3","postcode":"NW3 5SQ","phase":"Primary","lat":51.54625,"lng":-0.17815},{"urn":"100033","name":"Holy Trinity and Saint Silas CofE Primary School, NW1","postcode":"NW1 8DE","phase":"Primary","lat":51.54455,"lng":-0.1452},{"urn":"100034","name":"Kentish Town Church of England Primary School","postcode":"NW5 2TU","phase":"Primary","lat":51.54972,"lng":-0.13925},{"urn":"100035","name":"Rosary Catholic Primary School","postcode":"NW3 2AE","phase":"Primary","lat":51.55162,"lng":-0.16605},{"urn":"100036","name":"St Alban's Church of England Primary School","postcode":"EC1N 7SD","phase":"Primary","lat":51.52017,"lng":-0.11115},{"urn":"100040","name":"St George the Martyr Church of England Primary School","postcode":"WC1N 2NX","phase":"Primary","lat":51.522,"lng":-0.11623},{"urn":"100041","name":"St Josephs Catholic Primary School","postcode":"WC2B 5NA","phase":"Primary","lat":51.51619,"lng":-0.12183},{"urn":"100042","name":"St Mary's Kilburn Church of England Primary School","postcode":"NW6 4PG","phase":"Primary","lat":51.54037,"lng":-0.19333},{"urn":"100043","name":"St Mary and St Pancras Church of England Primary School","postcode":"NW1 1QP","phase":"Primary","lat":51.53171,"lng":-0.13378},{"urn":"100045","name":"St Patrick's Catholic Primary School","postcode":"NW5 3AH","phase":"Primary","lat":51.5492,"lng":-0.14279},{"urn":"100046","name":"St Paul's Church of England Primary School","postcode":"NW3 3DS","phase":"Primary","lat":51.54139,"lng":-0.16371},{"urn":"100047","name":"St Eugene de Mazenod Roman Catholic Primary School","postcode":"NW6 4LS","phase":"Primary","lat":51.54097,"lng":-0.19372},{"urn":"100048","name":"Our Lady Roman Catholic Primary School","postcode":"NW1 0DP","phase":"Primary","lat":51.53887,"lng":-0.13745},{"urn":"100049","name":"Haverstock School","postcode":"NW3 2BQ","phase":"Secondary","lat":51.54479,"lng":-0.154},{"urn":"100050","name":"Parliament Hill School","postcode":"NW5 1RL","phase":"Secondary","lat":51.55845,"lng":-0.14962},{"urn":"100051","name":"Regent High School","postcode":"NW1 1RX","phase":"Secondary","lat":51.53278,"lng":-0.13294},{"urn":"100052","name":"Hampstead School","postcode":"NW2 3RT","phase":"Secondary","lat":51.55562,"lng":-0.20702},{"urn":"100053","name":"Acland Burghley School","postcode":"NW5 1UJ","phase":"Secondary","lat":51.55742,"lng":-0.13962},{"urn":"100054","name":"The Camden School for Girls","postcode":"NW5 2DB","phase":"Secondary","lat":51.54599,"lng":-0.13467},{"urn":"100055","name":"Maria Fidelis Catholic School FCJ","postcode":"NW1 1LY","phase":"Secondary","lat":51.52979,"lng":-0.13323},{"urn":"100056","name":"William Ellis School","postcode":"NW5 1RN","phase":"Secondary","lat":51.5587,"lng":-0.15026},{"urn":"100059","name":"La Sainte Union Catholic Secondary School","postcode":"NW5 1RP","phase":"Secondary","lat":51.56,"lng":-0.14942},{"urn":"100097","name":"Rachel McMillan Nursery School and Children's Centre","postcode":"SE8 3EH","phase":"Nursery","lat":51.48135,"lng":-0.02323},{"urn":"100098","name":"Pound Park Nursery School","postcode":"SE7 8AF","phase":"Nursery","lat":51.48811,"lng":0.04033},{"urn":"100099","name":"Abbey Wood Nursery School","postcode":"SE2 0SX","phase":"Nursery","lat":51.48618,"lng":0.11244},{"urn":"100102","name":"Robert Owen Nursery School","postcode":"SE10 0EA","phase":"Nursery","lat":51.48713,"lng":0.00612},{"urn":"100114","name":"Morden Mount Primary School","postcode":"SE13 7QP","phase":"Primary","lat":51.47016,"lng":-0.01439},{"urn":"100115","name":"Cherry Orchard Primary School","postcode":"SE7 7DG","phase":"Primary","lat":51.47583,"lng":0.03369},{"urn":"100120","name":"Ealdham Primary School","postcode":"SE9 6BP","phase":"Primary","lat":51.45673,"lng":0.0353},{"urn":"100125","name":"Fossdene Primary School","postcode":"SE7 7NQ","phase":"Primary","lat":51.48389,"lng":0.02692},{"urn":"100127","name":"Gordon Primary School","postcode":"SE9 1QG","phase":"Primary","lat":51.45861,"lng":0.05296},{"urn":"100129","name":"Haimo Primary School","postcode":"SE9 6DY","phase":"Primary","lat":51.45539,"lng":0.04166},{"urn":"100131","name":"Henwick Primary School","postcode":"SE9 6NZ","phase":"Primary","lat":51.46278,"lng":0.04261},{"urn":"100134","name":"Invicta Primary School","postcode":"SE3 7HE","phase":"Primary","lat":51.47898,"lng":0.0206},{"urn":"100137","name":"Meridian Primary School","postcode":"SE10 9NY","phase":"Primary","lat":51.48421,"lng":-0.00049},{"urn":"100140","name":"Plumcroft Primary School","postcode":"SE18 3HW","phase":"Primary","lat":51.47702,"lng":0.07397},{"urn":"100141","name":"Sherington Primary School","postcode":"SE7 7JP","phase":"Primary","lat":51.48009,"lng":0.02571},{"urn":"100142","name":"Thorntree Primary School","postcode":"SE7 8AE","phase":"Primary","lat":51.4875,"lng":0.04164},{"urn":"100146","name":"Wyborne Primary School","postcode":"SE9 2EH","phase":"Primary","lat":51.43985,"lng":0.07038},{"urn":"100149","name":"Montbelle Primary School","postcode":"SE9 3EY","phase":"Primary","lat":51.42755,"lng":0.06183},{"urn":"100152","name":"De Lucy Primary School","postcode":"SE2 9PD","phase":"Primary","lat":51.49548,"lng":0.11002},{"urn":"100155","name":"Cardwell Primary School","postcode":"SE18 5LP","phase":"Primary","lat":51.49074,"lng":0.05351},{"urn":"100158","name":"Heronsgate Primary School","postcode":"SE28 0EA","phase":"Primary","lat":51.49406,"lng":0.08278},{"urn":"100159","name":"Linton Mead Primary School","postcode":"SE28 8DT","phase":"Primary","lat":51.50802,"lng":0.11328},{"urn":"100162","name":"Greenslade Primary School","postcode":"SE18 2QQ","phase":"Primary","lat":51.47903,"lng":0.08558},{"urn":"100163","name":"Mulgrave Primary School","postcode":"SE18 5DL","phase":"Primary","lat":51.48856,"lng":0.06078},{"urn":"100164","name":"Charlton Manor Primary School","postcode":"SE7 7EF","phase":"Primary","lat":51.47763,"lng":0.03681},{"urn":"100165","name":"Christ Church Church of England Primary School","postcode":"SE10 0DZ","phase":"Primary","lat":51.48744,"lng":0.00703},{"urn":"100166","name":"Christ Church Church of England Primary School, Shooters Hill","postcode":"SE18 3RS","phase":"Primary","lat":51.46984,"lng":0.0609},{"urn":"100167","name":"Eltham Church of England Primary School","postcode":"SE9 1TR","phase":"Primary","lat":51.45131,"lng":0.05693},{"urn":"100168","name":"Our Lady of Grace Catholic Primary School","postcode":"SE7 7HR","phase":"Primary","lat":51.48143,"lng":0.02841},{"urn":"100169","name":"St Joseph's Catholic Primary School","postcode":"SE10 9AN","phase":"Primary","lat":51.48629,"lng":0.00574},{"urn":"100170","name":"St Margaret's Church of England Primary School","postcode":"SE18 7RL","phase":"Primary","lat":51.48242,"lng":0.07441},{"urn":"100171","name":"Saint Mary Magdalene Church of England All Through School","postcode":"SE18 5PW","phase":"All-through","lat":51.49137,"lng":0.06108},{"urn":"100173","name":"St Patrick's Catholic Primary School","postcode":"SE18 7QG","phase":"Primary","lat":51.48848,"lng":0.08539},{"urn":"100174","name":"St Alfege with St Peter's Church of England Primary School","postcode":"SE10 9RB","phase":"Primary","lat":51.48173,"lng":-0.01255},{"urn":"100175","name":"St Peter's Catholic Primary School","postcode":"SE18 7BN","phase":"Primary","lat":51.48661,"lng":0.06886},{"urn":"100176","name":"St Thomas More Catholic Primary School","postcode":"SE9 6NS","phase":"Primary","lat":51.46258,"lng":0.04492},{"urn":"100177","name":"St Thomas A Becket Roman Catholic Primary School","postcode":"SE2 9LY","phase":"Primary","lat":51.49156,"lng":0.1042},{"urn":"100180","name":"St Margaret Clitherow Catholic Primary School","postcode":"SE28 8GB","phase":"Primary","lat":51.50096,"lng":0.11337},{"urn":"100181","name":"Bishop John Robinson Church of England Primary School","postcode":"SE28 8LW","phase":"Primary","lat":51.50898,"lng":0.11792},{"urn":"100182","name":"Eltham Hill School","postcode":"SE9 5EE","phase":"Secondary","lat":51.45091,"lng":0.04581},{"urn":"100183","name":"Plumstead Manor School","postcode":"SE18 1QF","phase":"Secondary","lat":51.48191,"lng":0.08464},{"urn":"100190","name":"Thomas Tallis School","postcode":"SE3 9PX","phase":"Secondary","lat":51.46618,"lng":0.02645},{"urn":"100193","name":"St Ursula's Convent School","postcode":"SE10 8HN","phase":"Secondary","lat":51.47579,"lng":-0.00578},{"urn":"100212","name":"Wentworth Nursery School and Children's Centre","postcode":"E9 5BY","phase":"Nursery","lat":51.54326,"lng":-0.0414},{"urn":"100213","name":"Comet Nursery School and Children's Centre","postcode":"N1 5RF","phase":"Nursery","lat":51.5359,"lng":-0.08069},{"urn":"100218","name":"Berger Primary School","postcode":"E9 6HB","phase":"Primary","lat":51.54649,"lng":-0.04511},{"urn":"100223","name":"Daubeney Primary School","postcode":"E5 0EG","phase":"Primary","lat":51.55236,"lng":-0.03785},{"urn":"100225","name":"Gainsborough Primary School","postcode":"E9 5ND","phase":"Primary","lat":51.54615,"lng":-0.02547},{"urn":"100229","name":"Lauriston School","postcode":"E9 7JS","phase":"Primary","lat":51.53688,"lng":-0.04685},{"urn":"100230","name":"London Fields Primary School","postcode":"E8 3RL","phase":"Primary","lat":51.53751,"lng":-0.05901},{"urn":"100231","name":"Millfields Community School","postcode":"E5 0SH","phase":"Primary","lat":51.55587,"lng":-0.05094},{"urn":"100232","name":"Morningside Primary School","postcode":"E9 6LL","phase":"Primary","lat":51.54651,"lng":-0.05026},{"urn":"100234","name":"Orchard Primary School","postcode":"E9 7BB","phase":"Primary","lat":51.54085,"lng":-0.04903},{"urn":"100235","name":"Queensbridge Primary School","postcode":"E8 4ET","phase":"Primary","lat":51.53929,"lng":-0.07172},{"urn":"100239","name":"Princess May Primary School","postcode":"N16 8DF","phase":"Primary","lat":51.55278,"lng":-0.07741},{"urn":"100240","name":"Sebright School","postcode":"E2 8QH","phase":"Primary","lat":51.53337,"lng":-0.06545},{"urn":"100241","name":"Shacklewell Primary School","postcode":"E8 2EA","phase":"Primary","lat":51.55283,"lng":-0.0715},{"urn":"100242","name":"Southwold Primary School","postcode":"E5 9NL","phase":"Primary","lat":51.56344,"lng":-0.0536},{"urn":"100243","name":"Thomas Fairchild Community School","postcode":"N1 7HA","phase":"Primary","lat":51.53347,"lng":-0.09168},{"urn":"100245","name":"Shoreditch Park Primary School","postcode":"N1 5JN","phase":"Primary","lat":51.53502,"lng":-0.08583},{"urn":"100248","name":"Woodberry Down Community Primary School","postcode":"N4 1SY","phase":"Primary","lat":51.57316,"lng":-0.09098},{"urn":"100250","name":"Kingsmead Primary School","postcode":"E9 5PP","phase":"Primary","lat":51.55383,"lng":-0.03499},{"urn":"100252","name":"Grasmere Primary School","postcode":"N16 9PD","phase":"Primary","lat":51.55553,"lng":-0.08387},{"urn":"100253","name":"Jubilee Primary School","postcode":"N16 6NR","phase":"Primary","lat":51.56607,"lng":-0.06591},{"urn":"100254","name":"Nightingale Primary School","postcode":"E5 8NA","phase":"Primary","lat":51.55598,"lng":-0.06077},{"urn":"100256","name":"Harrington Hill Primary School","postcode":"E5 9JG","phase":"Primary","lat":51.56667,"lng":-0.05442},{"urn":"100257","name":"Holmleigh Primary School","postcode":"N16 5ED","phase":"Primary","lat":51.5708,"lng":-0.08141},{"urn":"100258","name":"Grazebrook Primary School","postcode":"N16 0QP","phase":"Primary","lat":51.5642,"lng":-0.08311},{"urn":"100259","name":"Parkwood Primary School","postcode":"N4 2HQ","phase":"Primary","lat":51.56507,"lng":-0.09929},{"urn":"100260","name":"Benthal Primary School","postcode":"N16 7AU","phase":"Primary","lat":51.5583,"lng":-0.06516},{"urn":"100261","name":"Mandeville Primary School","postcode":"E5 0BT","phase":"Primary","lat":51.55714,"lng":-0.04032},{"urn":"100263","name":"Holy Trinity Church of England Primary School","postcode":"E8 3DY","phase":"Primary","lat":51.54469,"lng":-0.074},{"urn":"100264","name":"Our Lady and St Joseph Catholic Primary School","postcode":"N1 4JB","phase":"Primary","lat":51.54494,"lng":-0.08041},{"urn":"100266","name":"St John the Baptist Voluntary Aided Church of England Primary School","postcode":"N1 6JG","phase":"Primary","lat":51.53087,"lng":-0.08396},{"urn":"100267","name":"St Matthias Church of England Primary School","postcode":"N16 8DD","phase":"Primary","lat":51.5525,"lng":-0.07933},{"urn":"100269","name":"St. Paul's With St. Michael's CofE Primary School","postcode":"E8 4PB","phase":"Primary","lat":51.53787,"lng":-0.0647},{"urn":"100270","name":"St John of Jerusalem Church of England Primary School","postcode":"E9 7JF","phase":"Primary","lat":51.54008,"lng":-0.05013},{"urn":"100274","name":"St Scholastica's Catholic Primary School","postcode":"E5 8BS","phase":"Primary","lat":51.55854,"lng":-0.05994},{"urn":"100275","name":"Simon Marks Jewish Primary School","postcode":"N16 6PD","phase":"Primary","lat":51.5654,"lng":-0.06933},{"urn":"100279","name":"Stoke Newington School and Sixth Form","postcode":"N16 9EX","phase":"Secondary","lat":51.55789,"lng":-0.08458},{"urn":"100282","name":"All Saints Catholic High School","postcode":"N16 5AF","phase":"Secondary","lat":51.57427,"lng":-0.07521},{"urn":"100284","name":"The Urswick School - A Church of England Secondary School","postcode":"E9 6NR","phase":"Secondary","lat":51.54447,"lng":-0.05259},{"urn":"100315","name":"Randolph Beresford Early Years Centre","postcode":"W12 7PH","phase":"Nursery","lat":51.51067,"lng":-0.23164},{"urn":"100316","name":"Vanessa Nursery School","postcode":"W12 9JA","phase":"Nursery","lat":51.50262,"lng":-0.23478},{"urn":"100317","name":"James Lee Nursery School","postcode":"W14 9BH","phase":"Nursery","lat":51.49213,"lng":-0.21307},{"urn":"100318","name":"Bayonne Nursery School","postcode":"W6 8PF","phase":"Nursery","lat":51.48398,"lng":-0.21453},{"urn":"100321","name":"Addison Primary School","postcode":"W14 0DT","phase":"Primary","lat":51.5003,"lng":-0.21833},{"urn":"100322","name":"Avonmore Primary School","postcode":"W14 9LY","phase":"Primary","lat":51.48877,"lng":-0.20445},{"urn":"100324","name":"Brackenbury Primary School","postcode":"W6 0BA","phase":"Primary","lat":51.49984,"lng":-0.23225},{"urn":"100326","name":"Miles Coverdale Primary School","postcode":"W12 8JJ","phase":"Primary","lat":51.50486,"lng":-0.22903},{"urn":"100328","name":"Flora Gardens Primary School","postcode":"W6 7PZ","phase":"Primary","lat":51.49867,"lng":-0.22394},{"urn":"100331","name":"Kenmont Primary School","postcode":"NW10 6AL","phase":"Primary","lat":51.5317,"lng":-0.23547},{"urn":"100334","name":"Melcombe Primary School","postcode":"W6 9ER","phase":"Primary","lat":51.48618,"lng":-0.22114},{"urn":"100335","name":"Old Oak Primary School","postcode":"W12 0AS","phase":"Primary","lat":51.51943,"lng":-0.24654},{"urn":"100338","name":"Sir John Lillie Primary School","postcode":"SW6 7LN","phase":"Primary","lat":51.48327,"lng":-0.2092},{"urn":"100340","name":"Wendell Park Primary School","postcode":"W12 9LB","phase":"Primary","lat":51.50375,"lng":-0.24838},{"urn":"100341","name":"Wormholt Park Primary School","postcode":"W12 0SR","phase":"Primary","lat":51.51144,"lng":-0.24016},{"urn":"100344","name":"All Saints CofE Primary School","postcode":"SW6 6ED","phase":"Primary","lat":51.47286,"lng":-0.21361},{"urn":"100345","name":"Holy Cross RC School","postcode":"SW6 4BL","phase":"Primary","lat":51.47595,"lng":-0.19748},{"urn":"100346","name":"John Betts Primary School","postcode":"W6 0UA","phase":"Primary","lat":51.49855,"lng":-0.2375},{"urn":"100349","name":"St John's Walham Green Church of England Primary School","postcode":"SW6 6AS","phase":"Primary","lat":51.47697,"lng":-0.20913},{"urn":"100350","name":"St Mary's Catholic Primary School","postcode":"W14 0LT","phase":"Primary","lat":51.49894,"lng":-0.21593},{"urn":"100351","name":"St Paul's CofE Primary School","postcode":"W6 9BP","phase":"Primary","lat":51.49064,"lng":-0.22718},{"urn":"100352","name":"St Peter's Primary School","postcode":"W6 9BA","phase":"Primary","lat":51.49205,"lng":-0.24094},{"urn":"100353","name":"St Stephen's CofE Primary School","postcode":"W12 8LH","phase":"Primary","lat":51.50557,"lng":-0.22758},{"urn":"100354","name":"Good Shepherd RC Primary School","postcode":"W12 9BY","phase":"Primary","lat":51.50283,"lng":-0.24562},{"urn":"100384","name":"Margaret McMillan Nursery School","postcode":"N19 3SF","phase":"Nursery","lat":51.57208,"lng":-0.12579},{"urn":"100385","name":"Kate Greenaway Nursery School and Children's Centre","postcode":"N1 0UH","phase":"Nursery","lat":51.53634,"lng":-0.12058},{"urn":"100386","name":"North Islington Nursery School","postcode":"N4 3RB","phase":"Nursery","lat":51.56645,"lng":-0.11367},{"urn":"100397","name":"Ambler Primary School and Children's Centre","postcode":"N4 2DR","phase":"Primary","lat":51.56213,"lng":-0.10069},{"urn":"100402","name":"Drayton Park Primary School","postcode":"N5 1PJ","phase":"Primary","lat":51.55155,"lng":-0.10572},{"urn":"100403","name":"Duncombe Primary School","postcode":"N19 4JA","phase":"Primary","lat":51.56699,"lng":-0.12368},{"urn":"100405","name":"Gillespie Primary School","postcode":"N5 1LH","phase":"Primary","lat":51.55972,"lng":-0.101},{"urn":"100406","name":"Grafton Primary School","postcode":"N7 6AR","phase":"Primary","lat":51.55939,"lng":-0.11939},{"urn":"100407","name":"Hanover Primary School","postcode":"N1 8BD","phase":"Primary","lat":51.53295,"lng":-0.09872},{"urn":"100408","name":"Hargrave Park Primary School","postcode":"N19 5BS","phase":"Primary","lat":51.56429,"lng":-0.14005},{"urn":"100411","name":"Laycock Primary School","postcode":"N1 1SW","phase":"Primary","lat":51.5445,"lng":-0.10565},{"urn":"100415","name":"Moreland Primary School","postcode":"EC1V 8BB","phase":"Primary","lat":51.5286,"lng":-0.09997},{"urn":"100418","name":"Pakeman Primary School","postcode":"N7 6DU","phase":"Primary","lat":51.5595,"lng":-0.11454},{"urn":"100422","name":"Robert Blair School and Children's Centre","postcode":"N7 9QJ","phase":"Primary","lat":51.54512,"lng":-0.11985},{"urn":"100425","name":"Thornhill Primary School","postcode":"N1 1HX","phase":"Primary","lat":51.54034,"lng":-0.10946},{"urn":"100426","name":"Vittoria Primary School","postcode":"N1 0WF","phase":"Primary","lat":51.53563,"lng":-0.11878},{"urn":"100428","name":"Winton Primary School","postcode":"N1 9AZ","phase":"Primary","lat":51.53267,"lng":-0.11801},{"urn":"100429","name":"Yerbury Primary School","postcode":"N19 4RR","phase":"Primary","lat":51.56006,"lng":-0.1316},{"urn":"100430","name":"Tufnell Park Primary School","postcode":"N7 0HJ","phase":"Primary","lat":51.55434,"lng":-0.12972},{"urn":"100432","name":"Ashmount Primary School","postcode":"N8 9EG","phase":"Primary","lat":51.57451,"lng":-0.12174},{"urn":"100434","name":"Prior Weston Primary School and Children's Centre","postcode":"EC1Y 8JA","phase":"Primary","lat":51.52195,"lng":-0.09344},{"urn":"100437","name":"Sacred Heart Catholic Primary School","postcode":"N7 8JN","phase":"Primary","lat":51.55043,"lng":-0.11286},{"urn":"100438","name":"St John Evangelist Catholic Primary School","postcode":"N1 8BL","phase":"Primary","lat":51.53395,"lng":-0.10404},{"urn":"100439","name":"St John's Upper Holloway CofE Primary School","postcode":"N19 5RR","phase":"Primary","lat":51.56265,"lng":-0.1316},{"urn":"100440","name":"St John's Highbury Vale CofE Primary School","postcode":"N5 1DL","phase":"Primary","lat":51.55828,"lng":-0.10016},{"urn":"100441","name":"St Joseph's Catholic Primary School","postcode":"N19 5NE","phase":"Primary","lat":51.56745,"lng":-0.13877},{"urn":"100443","name":"St Luke's CofE Primary School","postcode":"EC1V 3SJ","phase":"Primary","lat":51.52654,"lng":-0.09194},{"urn":"100444","name":"St Mark's CofE Primary School","postcode":"N19 4JF","phase":"Primary","lat":51.56436,"lng":-0.12092},{"urn":"100446","name":"St Mary's CofE Primary School","postcode":"N1 2EP","phase":"Primary","lat":51.53935,"lng":-0.09985},{"urn":"100447","name":"St Peter and St Paul Catholic Primary School","postcode":"EC1V 0EU","phase":"Primary","lat":51.52497,"lng":-0.10091},{"urn":"100448","name":"St Andrew's (Barnsbury) CofE Primary School","postcode":"N1 0LB","phase":"Primary","lat":51.53819,"lng":-0.1146},{"urn":"100449","name":"St Joan of Arc RC Primary School","postcode":"N5 2UX","phase":"Primary","lat":51.55661,"lng":-0.09608},{"urn":"100450","name":"Christ The King Catholic Primary School","postcode":"N4 3QW","phase":"Primary","lat":51.56688,"lng":-0.11393},{"urn":"100455","name":"Highbury Fields School","postcode":"N5 1AR","phase":"Secondary","lat":51.55281,"lng":-0.1015},{"urn":"100457","name":"Elizabeth Garrett Anderson School","postcode":"N1 9QG","phase":"Secondary","lat":51.53296,"lng":-0.11359},{"urn":"100458","name":"Central Foundation Boys' School","postcode":"EC2A 4SH","phase":"Secondary","lat":51.52521,"lng":-0.08575},{"urn":"100472","name":"Golborne & Maxilla Nursery School","postcode":"W10 5TN","phase":"Nursery","lat":51.52053,"lng":-0.20661},{"urn":"100473","name":"St Anne's & Avondale Park Nursery School","postcode":"W11 4EE","phase":"Nursery","lat":51.51089,"lng":-0.21443},{"urn":"100474","name":"Chelsea Open Air Nursery School","postcode":"SW3 5JE","phase":"Nursery","lat":51.48504,"lng":-0.17002},{"urn":"100477","name":"Ashburnham Community School","postcode":"SW10 0DT","phase":"Primary","lat":51.48182,"lng":-0.1778},{"urn":"100478","name":"Barlby Primary School","postcode":"W10 6DW","phase":"Primary","lat":51.52363,"lng":-0.214},{"urn":"100479","name":"Bevington Primary School","postcode":"W10 5TW","phase":"Primary","lat":51.52125,"lng":-0.20888},{"urn":"100480","name":"Bousfield Primary School","postcode":"SW5 0DJ","phase":"Primary","lat":51.49007,"lng":-0.18617},{"urn":"100481","name":"Colville Primary School","postcode":"W11 2DF","phase":"Primary","lat":51.51464,"lng":-0.20364},{"urn":"100482","name":"Fox Primary School","postcode":"W8 7PP","phase":"Primary","lat":51.50749,"lng":-0.19668},{"urn":"100483","name":"Marlborough Primary School","postcode":"SW3 3AP","phase":"Primary","lat":51.49268,"lng":-0.16589},{"urn":"100485","name":"Oxford Gardens Primary School","postcode":"W10 6NF","phase":"Primary","lat":51.51739,"lng":-0.21667},{"urn":"100486","name":"Park Walk Primary School","postcode":"SW10 0AY","phase":"Primary","lat":51.48415,"lng":-0.17795},{"urn":"100487","name":"Avondale Park Primary School","postcode":"W11 4EE","phase":"Primary","lat":51.51089,"lng":-0.21443},{"urn":"100488","name":"Thomas Jones Primary School","postcode":"W11 1RQ","phase":"Primary","lat":51.51491,"lng":-0.21036},{"urn":"100489","name":"Christ Church CofE Primary School","postcode":"SW3 4AA","phase":"Primary","lat":51.4855,"lng":-0.16433},{"urn":"100490","name":"Holy Trinity CofE Primary School","postcode":"SW1X 9DE","phase":"Primary","lat":51.4933,"lng":-0.15667},{"urn":"100491","name":"Oratory Roman Catholic Primary School","postcode":"SW3 6QH","phase":"Primary","lat":51.49062,"lng":-0.17029},{"urn":"100492","name":"St Thomas' CofE Primary School","postcode":"W10 5EF","phase":"Primary","lat":51.52378,"lng":-0.20849},{"urn":"100493","name":"St Barnabas and St Philip's CofE Primary School","postcode":"W8 6EJ","phase":"Primary","lat":51.4979,"lng":-0.19815},{"urn":"100494","name":"Saint Francis of Assisi Catholic Primary School","postcode":"W11 4BJ","phase":"Primary","lat":51.51222,"lng":-0.21691},{"urn":"100495","name":"St Clement and St James CofE Primary School","postcode":"W11 4PG","phase":"Primary","lat":51.50907,"lng":-0.21104},{"urn":"100497","name":"St Mary Abbots CofE Primary School","postcode":"W8 4SP","phase":"Primary","lat":51.50191,"lng":-0.19185},{"urn":"100499","name":"Saint Mary's Catholic Primary School","postcode":"W10 5AW","phase":"Primary","lat":51.52508,"lng":-0.21077},{"urn":"100500","name":"Servite RC Primary School","postcode":"SW10 9NA","phase":"Primary","lat":51.48503,"lng":-0.18305},{"urn":"100503","name":"All Saints Catholic College","postcode":"W10 6EL","phase":"Secondary","lat":51.52064,"lng":-0.21412},{"urn":"100505","name":"St Charles Catholic Primary School","postcode":"W10 6EB","phase":"Primary","lat":51.52172,"lng":-0.21392},{"urn":"100550","name":"Triangle Nursery School","postcode":"SW2 1PL","phase":"Nursery","lat":51.4567,"lng":-0.10988},{"urn":"100551","name":"Effra Nursery School and Children's Centre","postcode":"SW2 1PL","phase":"Nursery","lat":51.4567,"lng":-0.10988},{"urn":"100552","name":"Ethelred Nursery School and Children's Centre","postcode":"SE11 6BG","phase":"Nursery","lat":51.491,"lng":-0.11201},{"urn":"100553","name":"Maytree Nursery School","postcode":"SW4 8EG","phase":"Nursery","lat":51.45156,"lng":-0.13105},{"urn":"100554","name":"Holmewood Nursery School","postcode":"SW2 2RW","phase":"Nursery","lat":51.4477,"lng":-0.12004},{"urn":"100556","name":"Ashmole Primary School","postcode":"SW8 1NT","phase":"Primary","lat":51.48202,"lng":-0.11491},{"urn":"100560","name":"Clapham Manor Primary School","postcode":"SW4 0BZ","phase":"Primary","lat":51.46463,"lng":-0.13792},{"urn":"100564","name":"Granton Primary School","postcode":"SW16 5AN","phase":"Primary","lat":51.41421,"lng":-0.1417},{"urn":"100566","name":"Heathbrook Primary School","postcode":"SW8 3EH","phase":"Primary","lat":51.47012,"lng":-0.14315},{"urn":"100567","name":"Henry Cavendish Primary School","postcode":"SW12 0JA","phase":"Primary","lat":51.44474,"lng":-0.14278},{"urn":"100572","name":"Jessop Primary School","postcode":"SE24 0BJ","phase":"Primary","lat":51.46003,"lng":-0.10134},{"urn":"100574","name":"Kingswood Primary School","postcode":"SE27 9RD","phase":"Primary","lat":51.42689,"lng":-0.09005},{"urn":"100576","name":"Larkhall Primary Campus","postcode":"SW4 6PH","phase":"Primary","lat":51.47067,"lng":-0.12956},{"urn":"100577","name":"Paxton Primary School","postcode":"SE19 1PA","phase":"Primary","lat":51.42226,"lng":-0.08084},{"urn":"100578","name":"Richard Atkins Primary School","postcode":"SW2 4JP","phase":"Primary","lat":51.44809,"lng":-0.12693},{"urn":"100582","name":"Stockwell Primary School","postcode":"SW9 9TG","phase":"Primary","lat":51.46643,"lng":-0.11733},{"urn":"100584","name":"Sudbourne Primary School","postcode":"SW2 5EF","phase":"Primary","lat":51.45596,"lng":-0.12729},{"urn":"100585","name":"Sunnyhill Primary School","postcode":"SW16 2UW","phase":"Primary","lat":51.42932,"lng":-0.12229},{"urn":"100586","name":"Telferscot Primary School","postcode":"SW12 0HW","phase":"Primary","lat":51.44273,"lng":-0.13774},{"urn":"100588","name":"Vauxhall Primary School","postcode":"SE11 5LG","phase":"Primary","lat":51.48956,"lng":-0.11731},{"urn":"100589","name":"Walnut Tree Walk Primary School","postcode":"SE11 6DS","phase":"Primary","lat":51.49395,"lng":-0.11337},{"urn":"100590","name":"Woodmansterne School","postcode":"SW16 5UQ","phase":"All-through","lat":51.41316,"lng":-0.13497},{"urn":"100591","name":"Wyvil Primary School and Resource Bases for Speech, Language and Communication Needs, and Autism","postcode":"SW8 2TJ","phase":"Primary","lat":51.48129,"lng":-0.12546},{"urn":"100593","name":"Crown Lane Primary School","postcode":"SW16 3HX","phase":"Primary","lat":51.42343,"lng":-0.109},{"urn":"100595","name":"Fenstanton Primary School","postcode":"SW2 3PW","phase":"Primary","lat":51.44225,"lng":-0.11363},{"urn":"100597","name":"Elm Wood School","postcode":"SE27 9RR","phase":"Primary","lat":51.43169,"lng":-0.09244},{"urn":"100598","name":"Allen Edwards Primary School","postcode":"SW4 6RP","phase":"Primary","lat":51.47288,"lng":-0.12721},{"urn":"100601","name":"Glenbrook Primary School","postcode":"SW4 8LD","phase":"Primary","lat":51.45308,"lng":-0.1329},{"urn":"100602","name":"Julian's School","postcode":"SE27 0JF","phase":"Primary","lat":51.43085,"lng":-0.10557},{"urn":"100604","name":"Herbert Morrison Primary School","postcode":"SW8 2HP","phase":"Primary","lat":51.47866,"lng":-0.12587},{"urn":"100609","name":"Archbishop Sumner Church of England Primary School","postcode":"SE11 4PH","phase":"Primary","lat":51.49159,"lng":-0.10994},{"urn":"100610","name":"Christ Church Primary SW9","postcode":"SW9 6HN","phase":"Primary","lat":51.47623,"lng":-0.10812},{"urn":"100612","name":"Macaulay Church of England Primary School","postcode":"SW4 0NU","phase":"Primary","lat":51.46326,"lng":-0.14765},{"urn":"100613","name":"St Andrew's Church of England Primary School","postcode":"SW9 9DE","phase":"Primary","lat":51.46835,"lng":-0.12233},{"urn":"100614","name":"St John the Divine Church of England Primary School","postcode":"SE5 0SX","phase":"Primary","lat":51.47872,"lng":-0.10322},{"urn":"100615","name":"St John's Angell Town Church of England Primary School","postcode":"SW9 7HH","phase":"Primary","lat":51.46805,"lng":-0.10852},{"urn":"100616","name":"St Jude's Church of England Primary School","postcode":"SE24 0EL","phase":"Primary","lat":51.45477,"lng":-0.10554},{"urn":"100619","name":"St Mark's Church of England Primary School","postcode":"SE11 5SL","phase":"Primary","lat":51.48457,"lng":-0.11728},{"urn":"100620","name":"St Saviour's Church of England Primary School","postcode":"SE24 0AY","phase":"Primary","lat":51.46247,"lng":-0.09764},{"urn":"100621","name":"St Stephen's Church of England Primary School","postcode":"SW8 1EJ","phase":"Primary","lat":51.47979,"lng":-0.12262},{"urn":"100622","name":"Holy Trinity Church of England Primary School","postcode":"SW2 2RL","phase":"Primary","lat":51.44704,"lng":-0.11874},{"urn":"100623","name":"St Helen's Catholic Primary School","postcode":"SW9 0TQ","phase":"Primary","lat":51.46713,"lng":-0.11429},{"urn":"100624","name":"The Norwood School","postcode":"SE19 3NY","phase":"Secondary","lat":51.42273,"lng":-0.09847},{"urn":"100625","name":"Lilian Baylis Technology School","postcode":"SE11 5QY","phase":"Secondary","lat":51.4862,"lng":-0.11932},{"urn":"100627","name":"Saint Gabriel's College","postcode":"SW9 6UL","phase":"Secondary","lat":51.47598,"lng":-0.10239},{"urn":"100629","name":"St Anne's Catholic Primary School","postcode":"SE11 5JA","phase":"Primary","lat":51.48513,"lng":-0.1188},{"urn":"100631","name":"St Bede's Catholic Primary School","postcode":"SW12 0LF","phase":"Primary","lat":51.44495,"lng":-0.13518},{"urn":"100632","name":"St Andrew's Catholic Primary School","postcode":"SW16 2ET","phase":"Primary","lat":51.42432,"lng":-0.12579},{"urn":"100633","name":"Immanuel and St Andrew Church of England Primary School","postcode":"SW16 5SL","phase":"Primary","lat":51.41934,"lng":-0.13151},{"urn":"100634","name":"Reay Primary School","postcode":"SW9 0EN","phase":"Primary","lat":51.4775,"lng":-0.11506},{"urn":"100636","name":"St Mary's Roman Catholic Primary School","postcode":"SW4 9QJ","phase":"Primary","lat":51.45925,"lng":-0.13829},{"urn":"100637","name":"La Retraite Roman Catholic Girls' School","postcode":"SW12 0AB","phase":"Secondary","lat":51.44791,"lng":-0.14475},{"urn":"100638","name":"Bishop Thomas Grant Catholic Secondary School","postcode":"SW16 2HY","phase":"Secondary","lat":51.42497,"lng":-0.11871},{"urn":"100667","name":"Clyde Nursery School.","postcode":"SE8 5NH","phase":"Nursery","lat":51.48468,"lng":-0.03455},{"urn":"100668","name":"Chelwood Nursery School","postcode":"SE4 2QQ","phase":"Nursery","lat":51.45855,"lng":-0.04265},{"urn":"100671","name":"Adamsrill Primary School","postcode":"SE26 4AQ","phase":"Primary","lat":51.43075,"lng":-0.04045},{"urn":"100672","name":"Athelney Primary School","postcode":"SE6 3LD","phase":"Primary","lat":51.43373,"lng":-0.02441},{"urn":"100673","name":"Baring Primary School","postcode":"SE12 0NB","phase":"Primary","lat":51.44445,"lng":0.0126},{"urn":"100674","name":"Beecroft Garden Primary","postcode":"SE4 2BS","phase":"Primary","lat":51.45684,"lng":-0.03776},{"urn":"100676","name":"Cooper's Lane Primary School","postcode":"SE12 0LF","phase":"Primary","lat":51.43728,"lng":0.02123},{"urn":"100677","name":"Dalmain Primary School","postcode":"SE23 1AS","phase":"Primary","lat":51.44405,"lng":-0.04422},{"urn":"100678","name":"Deptford Park Primary School","postcode":"SE8 5RJ","phase":"Primary","lat":51.48834,"lng":-0.03809},{"urn":"100679","name":"Downderry Primary School","postcode":"BR1 5QL","phase":"Primary","lat":51.42821,"lng":0.0004},{"urn":"100680","name":"Edmund Waller Primary School","postcode":"SE14 5LY","phase":"Primary","lat":51.47037,"lng":-0.04841},{"urn":"100681","name":"Elfrida Primary School","postcode":"SE6 3EN","phase":"Primary","lat":51.42863,"lng":-0.02392},{"urn":"100683","name":"Forster Park Primary School","postcode":"SE6 1PQ","phase":"Primary","lat":51.4342,"lng":0.00364},{"urn":"100684","name":"Gordonbrock Primary School","postcode":"SE4 1HQ","phase":"Primary","lat":51.45479,"lng":-0.02825},{"urn":"100685","name":"Grinling Gibbons Primary School","postcode":"SE8 5LW","phase":"Primary","lat":51.48113,"lng":-0.02962},{"urn":"100686","name":"Haseltine Primary School","postcode":"SE26 5AD","phase":"Primary","lat":51.42819,"lng":-0.03654},{"urn":"100687","name":"Brindishe Green School","postcode":"SE13 6EH","phase":"Primary","lat":51.45101,"lng":-0.00514},{"urn":"100688","name":"Holbeach Primary School","postcode":"SE6 4TP","phase":"Primary","lat":51.44791,"lng":-0.02276},{"urn":"100689","name":"John Stainer Community Primary School","postcode":"SE4 2DY","phase":"Primary","lat":51.46421,"lng":-0.04071},{"urn":"100690","name":"Kelvin Grove Primary School","postcode":"SE26 6BB","phase":"Primary","lat":51.43259,"lng":-0.06275},{"urn":"100691","name":"Kender Primary School","postcode":"SE14 5JA","phase":"Primary","lat":51.47496,"lng":-0.05079},{"urn":"100692","name":"Launcelot Primary School and Nursery","postcode":"BR1 5EA","phase":"Primary","lat":51.42674,"lng":0.01603},{"urn":"100693","name":"Brindishe Manor School","postcode":"SE13 5LS","phase":"Primary","lat":51.45235,"lng":0.00147},{"urn":"100695","name":"Oak Gardens Primary School","postcode":"SE8 4QB","phase":"Primary","lat":51.47179,"lng":-0.02846},{"urn":"100696","name":"Marvels Lane Primary School","postcode":"SE12 9RA","phase":"Primary","lat":51.42918,"lng":0.03276},{"urn":"100699","name":"Rangefield Primary School","postcode":"BR1 4RP","phase":"Primary","lat":51.42397,"lng":0.00419},{"urn":"100700","name":"Rathfern Primary School","postcode":"SE6 4NL","phase":"Primary","lat":51.43992,"lng":-0.03248},{"urn":"100701","name":"Rushey Green Primary School","postcode":"SE6 2LA","phase":"Primary","lat":51.44224,"lng":-0.01617},{"urn":"100703","name":"Sandhurst Primary School","postcode":"SE6 1NW","phase":"Primary","lat":51.44311,"lng":-0.00037},{"urn":"100704","name":"Stillness Junior School","postcode":"SE23 1NH","phase":"Primary","lat":51.44949,"lng":-0.03889},{"urn":"100705","name":"Stillness Infant School","postcode":"SE23 1NH","phase":"Primary","lat":51.44949,"lng":-0.03889},{"urn":"100708","name":"Torridon Primary School","postcode":"SE6 1TG","phase":"Primary","lat":51.43644,"lng":-0.00317},{"urn":"100709","name":"John Ball Primary School","postcode":"SE3 0TP","phase":"Primary","lat":51.46619,"lng":0.00642},{"urn":"100710","name":"Fairlawn Primary School","postcode":"SE23 3SB","phase":"Primary","lat":51.44646,"lng":-0.05468},{"urn":"100711","name":"Eliot Bank Primary School","postcode":"SE26 4BU","phase":"Primary","lat":51.43648,"lng":-0.06102},{"urn":"100712","name":"Twin Oaks Primary School","postcode":"SE8 5AE","phase":"Primary","lat":51.48688,"lng":-0.04213},{"urn":"100713","name":"Myatt Garden Primary School","postcode":"SE4 1DF","phase":"Primary","lat":51.47099,"lng":-0.03092},{"urn":"100714","name":"Horniman Primary School","postcode":"SE23 3BP","phase":"Primary","lat":51.44415,"lng":-0.0588},{"urn":"100715","name":"Perrymount Primary School","postcode":"SE23 2PX","phase":"Primary","lat":51.43606,"lng":-0.04675},{"urn":"100716","name":"Ashmead Primary School","postcode":"SE8 4DX","phase":"Primary","lat":51.46965,"lng":-0.02586},{"urn":"100717","name":"Brindishe Lee School","postcode":"SE12 8NA","phase":"Primary","lat":51.45194,"lng":0.00859},{"urn":"100718","name":"Kilmorie Primary School","postcode":"SE23 2SP","phase":"Primary","lat":51.43772,"lng":-0.04018},{"urn":"100719","name":"All Saints' Church of England Primary School Blackheath","postcode":"SE3 0TX","phase":"Primary","lat":51.46934,"lng":0.00423},{"urn":"100722","name":"Good Shepherd RC School","postcode":"BR1 5EP","phase":"Primary","lat":51.42685,"lng":0.00984},{"urn":"100723","name":"Holy Trinity Church of England Primary School","postcode":"SE23 3HZ","phase":"Primary","lat":51.43531,"lng":-0.05671},{"urn":"100724","name":"St Margaret's Lee CofE Primary School","postcode":"SE13 5SG","phase":"Primary","lat":51.4596,"lng":0.0051},{"urn":"100725","name":"St Augustine's Catholic Primary School and Nursery","postcode":"SE6 3RD","phase":"Primary","lat":51.42436,"lng":-0.0167},{"urn":"100726","name":"St Bartholomews's Church of England Primary School","postcode":"SE26 4LJ","phase":"Primary","lat":51.43099,"lng":-0.05512},{"urn":"100728","name":"St John Baptist Southend Church of England Primary School","postcode":"BR1 5RL","phase":"Primary","lat":51.42846,"lng":-0.00984},{"urn":"100729","name":"St Joseph's Catholic Primary School","postcode":"SE8 3PH","phase":"Primary","lat":51.47875,"lng":-0.02423},{"urn":"100730","name":"St Mary's Lewisham Church of England Primary School","postcode":"SE13 6NX","phase":"Primary","lat":51.45503,"lng":-0.01537},{"urn":"100733","name":"St Saviour's Catholic Primary School","postcode":"SE13 6AL","phase":"Primary","lat":51.45995,"lng":-0.01036},{"urn":"100737","name":"St William of York Catholic Primary School","postcode":"SE23 1PS","phase":"Primary","lat":51.44431,"lng":-0.03916},{"urn":"100739","name":"Holy Cross Catholic Primary School","postcode":"SE6 2LD","phase":"Primary","lat":51.44284,"lng":-0.0168},{"urn":"100740","name":"Deptford Green School","postcode":"SE14 6AN","phase":"Secondary","lat":51.47825,"lng":-0.03573},{"urn":"100741","name":"Sydenham School","postcode":"SE26 4RD","phase":"Secondary","lat":51.43423,"lng":-0.0589},{"urn":"100745","name":"Forest Hill School","postcode":"SE23 2XN","phase":"Secondary","lat":51.43191,"lng":-0.04778},{"urn":"100748","name":"Addey and Stanhope School","postcode":"SE14 6TJ","phase":"Secondary","lat":51.4746,"lng":-0.02784},{"urn":"100749","name":"Trinity Church of England School, Lewisham","postcode":"SE12 8PD","phase":"All-through","lat":51.45522,"lng":0.00754},{"urn":"100767","name":"Kintore Way Nursery School and Children's Centre","postcode":"SE1 3BW","phase":"Nursery","lat":51.49438,"lng":-0.07605},{"urn":"100769","name":"Dulwich Wood Nursery School","postcode":"SE21 8QS","phase":"Nursery","lat":51.43033,"lng":-0.07967},{"urn":"100770","name":"Nell Gwynn Nursery School","postcode":"SE15 2TT","phase":"Nursery","lat":51.47596,"lng":-0.06372},{"urn":"100771","name":"The Grove Nursery School","postcode":"SE15 6BY","phase":"Nursery","lat":51.48039,"lng":-0.08286},{"urn":"100774","name":"Albion Primary School","postcode":"SE16 7JD","phase":"Primary","lat":51.50007,"lng":-0.05171},{"urn":"100775","name":"Bellenden Primary School","postcode":"SE15 4JP","phase":"Primary","lat":51.46459,"lng":-0.06727},{"urn":"100780","name":"Bird In Bush School","postcode":"SE15 1QP","phase":"Primary","lat":51.48043,"lng":-0.0634},{"urn":"100784","name":"Crampton Primary","postcode":"SE17 3LE","phase":"Primary","lat":51.48997,"lng":-0.1009},{"urn":"100785","name":"Crawford Primary School","postcode":"SE5 9NF","phase":"Primary","lat":51.47157,"lng":-0.09485},{"urn":"100790","name":"Goodrich Community Primary School","postcode":"SE22 0EP","phase":"Primary","lat":51.45085,"lng":-0.06854},{"urn":"100791","name":"Grange Primary School","postcode":"SE1 4RP","phase":"Primary","lat":51.49549,"lng":-0.08188},{"urn":"100793","name":"Heber Primary School","postcode":"SE22 9LA","phase":"Primary","lat":51.45326,"lng":-0.07359},{"urn":"100794","name":"Hollydale Primary School","postcode":"SE15 2AR","phase":"Primary","lat":51.46731,"lng":-0.05249},{"urn":"100795","name":"Ilderton Primary School","postcode":"SE16 3LA","phase":"Primary","lat":51.48517,"lng":-0.05355},{"urn":"100796","name":"Ivydale Primary School","postcode":"SE15 3BU","phase":"Primary","lat":51.46064,"lng":-0.04659},{"urn":"100798","name":"John Ruskin Primary School and Language Classes","postcode":"SE5 0PQ","phase":"Primary","lat":51.48214,"lng":-0.09902},{"urn":"100800","name":"Keyworth Primary School","postcode":"SE17 3TR","phase":"Primary","lat":51.48583,"lng":-0.1051},{"urn":"100801","name":"Dulwich Wood Primary School","postcode":"SE21 8NS","phase":"Primary","lat":51.43425,"lng":-0.08387},{"urn":"100803","name":"Michael Faraday School","postcode":"SE17 2HR","phase":"Primary","lat":51.48489,"lng":-0.08839},{"urn":"100808","name":"Riverside Primary School","postcode":"SE16 4PS","phase":"Primary","lat":51.49913,"lng":-0.06387},{"urn":"100809","name":"Robert Browning Primary School","postcode":"SE17 1DQ","phase":"Primary","lat":51.48942,"lng":-0.09332},{"urn":"100811","name":"Snowsfields Primary School","postcode":"SE1 3TD","phase":"Primary","lat":51.50151,"lng":-0.08385},{"urn":"100812","name":"Southwark Park Primary School","postcode":"SE16 2JH","phase":"Primary","lat":51.49463,"lng":-0.05893},{"urn":"100813","name":"Tower Bridge Primary School","postcode":"SE1 2AE","phase":"Primary","lat":51.50159,"lng":-0.07729},{"urn":"100815","name":"Victory Primary School","postcode":"SE17 1PT","phase":"Primary","lat":51.49293,"lng":-0.09281},{"urn":"100817","name":"Phoenix Primary School","postcode":"SE1 5JT","phase":"Primary","lat":51.48612,"lng":-0.06735},{"urn":"100818","name":"Pilgrims' Way Primary School","postcode":"SE15 1EF","phase":"Primary","lat":51.48049,"lng":-0.05591},{"urn":"100819","name":"Alfred Salter Primary School","postcode":"SE16 7LP","phase":"Primary","lat":51.49961,"lng":-0.04354},{"urn":"100821","name":"Oliver Goldsmith Primary School","postcode":"SE5 8UH","phase":"Primary","lat":51.474,"lng":-0.08109},{"urn":"100822","name":"Boutcher Church of England Primary School","postcode":"SE1 3BW","phase":"Primary","lat":51.49438,"lng":-0.07605},{"urn":"100823","name":"Dulwich Village Church of England Infants' School","postcode":"SE21 7BU","phase":"Primary","lat":51.45276,"lng":-0.08678},{"urn":"100824","name":"English Martyrs' Roman Catholic Primary School","postcode":"SE17 1RB","phase":"Primary","lat":51.49064,"lng":-0.0883},{"urn":"100825","name":"St James the Great Roman Catholic Primary School","postcode":"SE15 5LP","phase":"Primary","lat":51.47436,"lng":-0.07308},{"urn":"100826","name":"St Francis RC Primary School","postcode":"SE15 1RQ","phase":"Primary","lat":51.48034,"lng":-0.06626},{"urn":"100827","name":"St George's Church of England Primary School","postcode":"SE5 7TF","phase":"Primary","lat":51.47896,"lng":-0.08264},{"urn":"100829","name":"St James' Church of England Primary School","postcode":"SE16 4SU","phase":"Primary","lat":51.49772,"lng":-0.06766},{"urn":"100830","name":"St John's and St Clement's Church of England Primary School","postcode":"SE15 4DY","phase":"Primary","lat":51.46309,"lng":-0.07177},{"urn":"100834","name":"Saint Joseph's Catholic Primary School, the Borough","postcode":"SE1 1NJ","phase":"Primary","lat":51.50275,"lng":-0.09318},{"urn":"100835","name":"St Jude's Church of England Primary School","postcode":"SE1 6HA","phase":"Primary","lat":51.49683,"lng":-0.10527},{"urn":"100837","name":"Peter Hills with St Mary's and St Paul's CofE Primary School","postcode":"SE16 5ED","phase":"Primary","lat":51.5062,"lng":-0.04245},{"urn":"100839","name":"St Peter's Church of England Primary School","postcode":"SE17 2HH","phase":"Primary","lat":51.48617,"lng":-0.09328},{"urn":"100840","name":"The Cathedral School of St Saviour and St Mary Overie","postcode":"SE1 1HG","phase":"Primary","lat":51.50291,"lng":-0.09402},{"urn":"100841","name":"St John's Roman Catholic Primary School","postcode":"SE16 6SD","phase":"Primary","lat":51.5003,"lng":-0.04148},{"urn":"100849","name":"St Saviour's and St Olave's Church of England School","postcode":"SE1 4AN","phase":"Secondary","lat":51.49467,"lng":-0.08757},{"urn":"100853","name":"St Joseph's Catholic Junior School","postcode":"SE5 0TS","phase":"Primary","lat":51.4795,"lng":-0.09969},{"urn":"100854","name":"St Joseph's Catholic Infants School","postcode":"SE5 0TS","phase":"Primary","lat":51.4795,"lng":-0.09969},{"urn":"100855","name":"Friars Primary Foundation School","postcode":"SE1 0RF","phase":"Primary","lat":51.50099,"lng":-0.10273},{"urn":"100857","name":"The St Thomas the Apostle College","postcode":"SE15 2EB","phase":"Secondary","lat":51.47123,"lng":-0.05658},{"urn":"100882","name":"Childrens House Nursery School","postcode":"E3 3HL","phase":"Nursery","lat":51.52665,"lng":-0.01619},{"urn":"100884","name":"Columbia Market Nursery School","postcode":"E2 7PG","phase":"Nursery","lat":51.5285,"lng":-0.07414},{"urn":"100887","name":"Alice Model Nursery School","postcode":"E1 4NQ","phase":"Nursery","lat":51.52139,"lng":-0.04633},{"urn":"100890","name":"Ben Jonson Primary School","postcode":"E1 4PZ","phase":"Primary","lat":51.52096,"lng":-0.03777},{"urn":"100891","name":"Bonner Primary School","postcode":"E2 0NF","phase":"Primary","lat":51.52974,"lng":-0.04829},{"urn":"100892","name":"Old Palace Primary School","postcode":"E3 3BT","phase":"Primary","lat":51.52639,"lng":-0.01241},{"urn":"100894","name":"Cayley Primary School","postcode":"E14 7NG","phase":"Primary","lat":51.51616,"lng":-0.03837},{"urn":"100895","name":"Blue Gate Fields Junior School","postcode":"E1 0EH","phase":"Primary","lat":51.51056,"lng":-0.05429},{"urn":"100896","name":"Chisenhale Primary School","postcode":"E3 5QY","phase":"Primary","lat":51.53327,"lng":-0.03848},{"urn":"100898","name":"Cubitt Town Primary School","postcode":"E14 3NE","phase":"Primary","lat":51.49532,"lng":-0.01186},{"urn":"100902","name":"Globe Primary School","postcode":"E2 0JH","phase":"Primary","lat":51.5294,"lng":-0.05126},{"urn":"100903","name":"Hague Primary School","postcode":"E2 0BP","phase":"Primary","lat":51.52466,"lng":-0.05908},{"urn":"100904","name":"Harbinger Primary School","postcode":"E14 3QP","phase":"Primary","lat":51.48931,"lng":-0.02009},{"urn":"100906","name":"John Scurr Primary School","postcode":"E1 4AX","phase":"Primary","lat":51.52324,"lng":-0.05101},{"urn":"100907","name":"Lawdale Junior School","postcode":"E2 6LS","phase":"Primary","lat":51.52845,"lng":-0.06281},{"urn":"100908","name":"Elizabeth Selby Infants' School","postcode":"E2 6PP","phase":"Primary","lat":51.52867,"lng":-0.06289},{"urn":"100911","name":"Marion Richardson Primary School","postcode":"E1 0QF","phase":"Primary","lat":51.51442,"lng":-0.04619},{"urn":"100912","name":"Marner Primary School","postcode":"E3 3LL","phase":"Primary","lat":51.52293,"lng":-0.01234},{"urn":"100913","name":"Mayflower Primary School","postcode":"E14 6DU","phase":"Primary","lat":51.51159,"lng":-0.02029},{"urn":"100914","name":"Mowlem Primary School","postcode":"E2 9HE","phase":"Primary","lat":51.53382,"lng":-0.05528},{"urn":"100915","name":"Blue Gate Fields Infants' School","postcode":"E1 0EH","phase":"Primary","lat":51.51056,"lng":-0.05429},{"urn":"100916","name":"Olga Primary School","postcode":"E3 5DN","phase":"Primary","lat":51.53072,"lng":-0.03664},{"urn":"100917","name":"Stepney Park Primary School","postcode":"E1 3BW","phase":"Primary","lat":51.51877,"lng":-0.05235},{"urn":"100920","name":"Manorfield Primary School","postcode":"E14 6QD","phase":"Primary","lat":51.51826,"lng":-0.01327},{"urn":"100923","name":"Stewart Headlam Primary School","postcode":"E1 5RE","phase":"Primary","lat":51.52326,"lng":-0.05978},{"urn":"100927","name":"Wellington Primary School","postcode":"E3 4NE","phase":"Primary","lat":51.52592,"lng":-0.02481},{"urn":"100928","name":"Woolmore Primary School","postcode":"E14 0EW","phase":"Primary","lat":51.51026,"lng":-0.00876},{"urn":"100930","name":"Thomas Buxton Primary School","postcode":"E1 5AR","phase":"Primary","lat":51.52175,"lng":-0.06484},{"urn":"100931","name":"Seven Mills Primary School","postcode":"E14 8LY","phase":"Primary","lat":51.49838,"lng":-0.02358},{"urn":"100934","name":"Osmani Primary School","postcode":"E1 5AD","phase":"Primary","lat":51.52079,"lng":-0.06481},{"urn":"100937","name":"Bangabandhu Primary School","postcode":"E2 0LB","phase":"Primary","lat":51.52572,"lng":-0.05141},{"urn":"100938","name":"Halley Primary School","postcode":"E14 7SS","phase":"Primary","lat":51.51771,"lng":-0.03601},{"urn":"100939","name":"Bigland Green Primary School","postcode":"E1 2ND","phase":"Primary","lat":51.51268,"lng":-0.05855},{"urn":"100940","name":"Kobi Nazrul Primary School","postcode":"E1 1JP","phase":"Primary","lat":51.51611,"lng":-0.06427},{"urn":"100943","name":"William Davis Primary School","postcode":"E2 6ET","phase":"Primary","lat":51.52449,"lng":-0.06668},{"urn":"100944","name":"Christ Church CofE School","postcode":"E1 6PU","phase":"Primary","lat":51.51831,"lng":-0.0715},{"urn":"100946","name":"Stepney Greencoat Church of England Primary School","postcode":"E14 7TF","phase":"Primary","lat":51.51394,"lng":-0.03176},{"urn":"100949","name":"St Agnes RC Primary School","postcode":"E3 3ER","phase":"Primary","lat":51.52734,"lng":-0.01865},{"urn":"100951","name":"St Edmund's Catholic School","postcode":"E14 3RS","phase":"Primary","lat":51.49217,"lng":-0.0242},{"urn":"100953","name":"St John's Church of England Primary School","postcode":"E2 9LR","phase":"Primary","lat":51.53003,"lng":-0.05435},{"urn":"100954","name":"St Luke's Church of England Primary School","postcode":"E14 3EB","phase":"Primary","lat":51.48959,"lng":-0.00551},{"urn":"100958","name":"St Paul With St Luke CofE Primary Federation","postcode":"E3 4LA","phase":"Primary","lat":51.51796,"lng":-0.02919},{"urn":"100959","name":"St Paul's Whitechapel Church of England Primary School","postcode":"E1 8HY","phase":"Primary","lat":51.51009,"lng":-0.06582},{"urn":"100960","name":"St Peter's London Docks CofE Primary School","postcode":"E1W 3QT","phase":"Primary","lat":51.50764,"lng":-0.0552},{"urn":"100961","name":"St Saviour's Church of England Primary School","postcode":"E14 6BB","phase":"Primary","lat":51.51626,"lng":-0.0165},{"urn":"100962","name":"English Martyrs Roman Catholic Primary School","postcode":"E1 8DJ","phase":"Primary","lat":51.51276,"lng":-0.07088},{"urn":"100965","name":"Bow School","postcode":"E3 3QW","phase":"Secondary","lat":51.52339,"lng":-0.00947},{"urn":"100966","name":"Langdon Park Community School","postcode":"E14 0RZ","phase":"Secondary","lat":51.51479,"lng":-0.01212},{"urn":"100967","name":"Morpeth School","postcode":"E2 0PX","phase":"Secondary","lat":51.52678,"lng":-0.04846},{"urn":"100972","name":"Oaklands School","postcode":"E2 6PR","phase":"Secondary","lat":51.52924,"lng":-0.06169},{"urn":"100973","name":"Swanlea School","postcode":"E1 5DJ","phase":"Secondary","lat":51.52074,"lng":-0.06005},{"urn":"100974","name":"George Green's School","postcode":"E14 3DW","phase":"Secondary","lat":51.48813,"lng":-0.00761},{"urn":"100975","name":"Central Foundation Girls' School","postcode":"E3 2AE","phase":"Secondary","lat":51.52681,"lng":-0.02832},{"urn":"100977","name":"Stepney All Saints Church of England Secondary School","postcode":"E1 0RH","phase":"Secondary","lat":51.51625,"lng":-0.04419},{"urn":"100990","name":"Balham Nursery School","postcode":"SW12 8JL","phase":"Nursery","lat":51.44631,"lng":-0.15438},{"urn":"100991","name":"Eastwood Nursery School","postcode":"SW15 4EU","phase":"Nursery","lat":51.45209,"lng":-0.24488},{"urn":"100992","name":"Somerset Nursery School and Children's Centre","postcode":"SW11 3ND","phase":"Nursery","lat":51.47569,"lng":-0.17524},{"urn":"100995","name":"Alderbrook Primary School","postcode":"SW12 8PP","phase":"Primary","lat":51.44853,"lng":-0.1489},{"urn":"100996","name":"Allfarthing Primary School","postcode":"SW18 2LR","phase":"Primary","lat":51.45422,"lng":-0.18617},{"urn":"100997","name":"Beatrix Potter Primary School","postcode":"SW18 3ER","phase":"Primary","lat":51.44397,"lng":-0.18227},{"urn":"101001","name":"Brandlehow Primary School","postcode":"SW15 2ED","phase":"Primary","lat":51.46138,"lng":-0.20739},{"urn":"101005","name":"Earlsfield Primary School","postcode":"SW18 3QQ","phase":"Primary","lat":51.44144,"lng":-0.18594},{"urn":"101006","name":"Falconbrook Primary School","postcode":"SW11 2LX","phase":"Primary","lat":51.46816,"lng":-0.17405},{"urn":"101009","name":"Furzedown Primary School","postcode":"SW17 9TJ","phase":"Primary","lat":51.42196,"lng":-0.15311},{"urn":"101011","name":"Honeywell Junior School","postcode":"SW11 6EF","phase":"Primary","lat":51.45474,"lng":-0.16188},{"urn":"101012","name":"Honeywell Infant School","postcode":"SW11 6EF","phase":"Primary","lat":51.45474,"lng":-0.16188},{"urn":"101013","name":"Hotham Primary School","postcode":"SW15 1PN","phase":"Primary","lat":51.46423,"lng":-0.22117},{"urn":"101014","name":"John Burns Primary School","postcode":"SW11 5QR","phase":"Primary","lat":51.46951,"lng":-0.15276},{"urn":"101016","name":"Penwortham Primary School","postcode":"SW16 6RJ","phase":"Primary","lat":51.42239,"lng":-0.14585},{"urn":"101018","name":"Riversdale Primary School","postcode":"SW18 5JP","phase":"Primary","lat":51.44655,"lng":-0.19906},{"urn":"101019","name":"Sellincourt Primary School","postcode":"SW17 9SA","phase":"Primary","lat":51.42317,"lng":-0.16753},{"urn":"101020","name":"Shaftesbury Park Primary School","postcode":"SW11 5UW","phase":"Primary","lat":51.46877,"lng":-0.15661},{"urn":"101021","name":"Smallwood Primary School and Language Unit","postcode":"SW17 0TW","phase":"Primary","lat":51.43122,"lng":-0.17807},{"urn":"101022","name":"Swaffield School","postcode":"SW18 2SA","phase":"Primary","lat":51.45153,"lng":-0.18603},{"urn":"101024","name":"West Hill Primary School","postcode":"SW18 5ST","phase":"Primary","lat":51.45558,"lng":-0.19901},{"urn":"101026","name":"Sheringdale Primary School","postcode":"SW18 5TR","phase":"Primary","lat":51.44692,"lng":-0.20364},{"urn":"101027","name":"Southmead Primary School","postcode":"SW19 6QT","phase":"Primary","lat":51.44522,"lng":-0.21606},{"urn":"101028","name":"Granard Primary School","postcode":"SW15 6XA","phase":"Primary","lat":51.45565,"lng":-0.23295},{"urn":"101029","name":"Heathmere Primary School","postcode":"SW15 4LJ","phase":"Primary","lat":51.44467,"lng":-0.24139},{"urn":"101031","name":"Ronald Ross Primary School","postcode":"SW19 6RY","phase":"Primary","lat":51.44831,"lng":-0.21568},{"urn":"101032","name":"Albemarle Primary School","postcode":"SW19 6JP","phase":"Primary","lat":51.44203,"lng":-0.21378},{"urn":"101034","name":"All Saints' CofE Primary School, Putney","postcode":"SW15 1HL","phase":"Primary","lat":51.46788,"lng":-0.22774},{"urn":"101036","name":"Holy Ghost Catholic Primary School","postcode":"SW12 8QJ","phase":"Primary","lat":51.44788,"lng":-0.15634},{"urn":"101037","name":"Our Lady of Victories Catholic Primary School","postcode":"SW15 1AW","phase":"Primary","lat":51.46381,"lng":-0.22321},{"urn":"101038","name":"Roehampton Church Forest Primary School","postcode":"SW15 4AA","phase":"Primary","lat":51.44827,"lng":-0.23751},{"urn":"101042","name":"St Boniface RC Primary School","postcode":"SW17 8PP","phase":"Primary","lat":51.42735,"lng":-0.16458},{"urn":"101043","name":"St Faith's CofE Primary School","postcode":"SW18 1AE","phase":"Primary","lat":51.45941,"lng":-0.18648},{"urn":"101044","name":"St George's CofE Primary School","postcode":"SW8 4JS","phase":"Primary","lat":51.47717,"lng":-0.13931},{"urn":"101045","name":"St Joseph's Catholic Primary and Nursery School","postcode":"SW15 2QD","phase":"Primary","lat":51.4592,"lng":-0.20044},{"urn":"101046","name":"St Mary's CofE Nursery and Primary School","postcode":"SW15 1BA","phase":"Primary","lat":51.46643,"lng":-0.22201},{"urn":"101047","name":"Trinity St Mary's CofE Primary School","postcode":"SW12 8DR","phase":"Primary","lat":51.44257,"lng":-0.1553},{"urn":"101048","name":"St Mary's RC Voluntary Aided Primary School","postcode":"SW8 4EN","phase":"Primary","lat":51.47657,"lng":-0.14616},{"urn":"101049","name":"St Michael's CofE Primary School","postcode":"SW18 5SQ","phase":"Primary","lat":51.45023,"lng":-0.20357},{"urn":"101050","name":"Sacred Heart Catholic Primary School, Roehampton","postcode":"SW15 5NX","phase":"Primary","lat":51.45761,"lng":-0.24194},{"urn":"101051","name":"Our Lady Queen of Heaven RC School","postcode":"SW19 6AD","phase":"Primary","lat":51.44797,"lng":-0.22037},{"urn":"101052","name":"St Anselm's Catholic Primary School","postcode":"SW17 8RW","phase":"Primary","lat":51.43527,"lng":-0.15623},{"urn":"101057","name":"Hillbrook School","postcode":"SW17 8SG","phase":"Primary","lat":51.43247,"lng":-0.1609},{"urn":"101104","name":"Tachbrook Nursery School","postcode":"SW1V 3RT","phase":"Nursery","lat":51.4866,"lng":-0.13257},{"urn":"101105","name":"Dorothy Gardner Nursery School","postcode":"W9 3JY","phase":"Nursery","lat":51.5289,"lng":-0.20177},{"urn":"101106","name":"Mary Paterson Nursery School","postcode":"W9 3DS","phase":"Nursery","lat":51.52801,"lng":-0.20225},{"urn":"101107","name":"St John's Wood Primary School","postcode":"NW8 7AL","phase":"Primary","lat":51.5328,"lng":-0.16908},{"urn":"101110","name":"Edward Wilson Primary School","postcode":"W2 5TL","phase":"Primary","lat":51.52168,"lng":-0.18917},{"urn":"101111","name":"Essendine Primary School","postcode":"W9 2LR","phase":"Primary","lat":51.52806,"lng":-0.19506},{"urn":"101116","name":"Hallfield Primary School","postcode":"W2 6JJ","phase":"Primary","lat":51.51494,"lng":-0.18641},{"urn":"101120","name":"Queen's Park Primary School","postcode":"W10 4DQ","phase":"Primary","lat":51.52747,"lng":-0.20932},{"urn":"101121","name":"All Souls CofE Primary School","postcode":"W1W 7JJ","phase":"Primary","lat":51.51985,"lng":-0.1386},{"urn":"101122","name":"Burdett-Coutts and Townshend Foundation CofE Primary School","postcode":"SW1P 2QQ","phase":"Primary","lat":51.49512,"lng":-0.135},{"urn":"101123","name":"Hampden Gurney CofE Primary School","postcode":"W1H 5HA","phase":"Primary","lat":51.51679,"lng":-0.16405},{"urn":"101125","name":"St Augustines Federated Schools: CofE Primary School","postcode":"NW6 5XA","phase":"Primary","lat":51.53453,"lng":-0.19156},{"urn":"101126","name":"St Barnabas' CofE Primary School","postcode":"SW1W 8PF","phase":"Primary","lat":51.49053,"lng":-0.15163},{"urn":"101127","name":"St Clement Danes CofE Primary School","postcode":"WC2B 5SU","phase":"Primary","lat":51.51367,"lng":-0.11973},{"urn":"101128","name":"St Edward's Catholic Primary School","postcode":"NW1 6LH","phase":"Primary","lat":51.52333,"lng":-0.16568},{"urn":"101129","name":"St Gabriel's CofE Primary School","postcode":"SW1V 3AG","phase":"Primary","lat":51.48619,"lng":-0.14178},{"urn":"101130","name":"St George's Hanover Square CofE Primary School","postcode":"W1K 2XH","phase":"Primary","lat":51.50883,"lng":-0.15009},{"urn":"101131","name":"Soho Parish CofE Primary School","postcode":"W1D 7LF","phase":"Primary","lat":51.51174,"lng":-0.13437},{"urn":"101132","name":"St James & St John Church of England Primary School","postcode":"W2 3QD","phase":"Primary","lat":51.51295,"lng":-0.17924},{"urn":"101134","name":"St Luke's CofE Primary School","postcode":"W9 3EJ","phase":"Primary","lat":51.53156,"lng":-0.20276},{"urn":"101135","name":"St Mary Magdalene & St Stephen's CofE Primary School","postcode":"W2 5TF","phase":"Primary","lat":51.52247,"lng":-0.18925},{"urn":"101136","name":"St Mary's Bryanston Square CofE School","postcode":"W1H 1DL","phase":"Primary","lat":51.52042,"lng":-0.16303},{"urn":"101137","name":"St. Mary of the Angels Catholic Primary School","postcode":"W2 5PR","phase":"Primary","lat":51.51844,"lng":-0.19748},{"urn":"101138","name":"St Matthew's School, Westminster","postcode":"SW1P 2DG","phase":"Primary","lat":51.4974,"lng":-0.13132},{"urn":"101139","name":"St Peter's CofE School","postcode":"W9 2AN","phase":"Primary","lat":51.5237,"lng":-0.19599},{"urn":"101140","name":"St Peter's Eaton Square CofE Primary School","postcode":"SW1W 0NL","phase":"Primary","lat":51.49602,"lng":-0.14639},{"urn":"101141","name":"St Saviour's CofE Primary School","postcode":"W9 2JD","phase":"Primary","lat":51.52416,"lng":-0.18822},{"urn":"101143","name":"St Vincent's Catholic Primary School","postcode":"W1U 4DF","phase":"Primary","lat":51.51862,"lng":-0.15266},{"urn":"101147","name":"Christ Church Bentinck CofE Primary School","postcode":"NW1 5NS","phase":"Primary","lat":51.52145,"lng":-0.16636},{"urn":"101154","name":"St Augustine's Federated Schools: CE High School","postcode":"NW6 5SN","phase":"Secondary","lat":51.53428,"lng":-0.19242},{"urn":"101188","name":"Dorothy Barley Infants' School","postcode":"RM8 2LL","phase":"Primary","lat":51.54636,"lng":0.11726},{"urn":"101192","name":"Manor Junior School","postcode":"IG11 9AG","phase":"Primary","lat":51.54367,"lng":0.10252},{"urn":"101193","name":"Manor Primary School","postcode":"RM8 2FL","phase":"Primary","lat":51.55029,"lng":0.11158},{"urn":"101196","name":"Northbury Primary School","postcode":"IG11 8JA","phase":"Primary","lat":51.53667,"lng":0.07548},{"urn":"101198","name":"Ripple Primary School","postcode":"IG11 7QS","phase":"Primary","lat":51.53626,"lng":0.09003},{"urn":"101202","name":"Beam Primary School","postcode":"RM10 9ED","phase":"Primary","lat":51.52844,"lng":0.16416},{"urn":"101203","name":"Furze Infant School","postcode":"RM6 6ES","phase":"Primary","lat":51.57143,"lng":0.14073},{"urn":"101206","name":"Grafton Primary School","postcode":"RM8 3EX","phase":"Primary","lat":51.55838,"lng":0.13931},{"urn":"101211","name":"Marsh Green Primary School","postcode":"RM10 9NJ","phase":"Primary","lat":51.53146,"lng":0.15165},{"urn":"101212","name":"Rush Green Primary School","postcode":"RM7 0RL","phase":"Primary","lat":51.57517,"lng":0.16854},{"urn":"101216","name":"The Leys Primary School","postcode":"RM10 9YR","phase":"Primary","lat":51.53596,"lng":0.16869},{"urn":"101219","name":"Warren Junior School","postcode":"RM6 6DA","phase":"Primary","lat":51.5751,"lng":0.14269},{"urn":"101220","name":"Thomas Arnold Primary School, Rowdowns Road","postcode":"RM9 6NH","phase":"Primary","lat":51.53693,"lng":0.14505},{"urn":"101222","name":"Valence Primary School","postcode":"RM8 3AR","phase":"Primary","lat":51.55822,"lng":0.13228},{"urn":"101223","name":"Village Infants' School","postcode":"RM10 9JS","phase":"Primary","lat":51.53854,"lng":0.15253},{"urn":"101224","name":"Rose Lane Primary School","postcode":"RM6 5NJ","phase":"Primary","lat":51.58541,"lng":0.1359},{"urn":"101226","name":"William Bellamy Primary School","postcode":"RM10 7HX","phase":"Primary","lat":51.5595,"lng":0.15487},{"urn":"101227","name":"Parsloes Primary School","postcode":"RM9 5RH","phase":"Primary","lat":51.54284,"lng":0.14499},{"urn":"101228","name":"Five Elms Primary School","postcode":"RM9 5TB","phase":"Primary","lat":51.5551,"lng":0.14539},{"urn":"101229","name":"Henry Green Primary School","postcode":"RM8 1UR","phase":"Primary","lat":51.56185,"lng":0.12766},{"urn":"101230","name":"Roding Primary School","postcode":"RM8 2XS","phase":"Primary","lat":51.54935,"lng":0.12687},{"urn":"101231","name":"Becontree Primary School","postcode":"RM8 2QR","phase":"Primary","lat":51.55583,"lng":0.118},{"urn":"101232","name":"John Perry Primary School","postcode":"RM10 8UR","phase":"Primary","lat":51.54143,"lng":0.17138},{"urn":"101234","name":"William Ford CofE Junior School","postcode":"RM10 9JS","phase":"Primary","lat":51.53854,"lng":0.15253},{"urn":"101237","name":"St Peter's Catholic Primary School","postcode":"RM9 6UU","phase":"Primary","lat":51.53189,"lng":0.14441},{"urn":"101241","name":"Barking Abbey School, A Specialist Sports and Humanities College","postcode":"IG11 9AG","phase":"Secondary","lat":51.54367,"lng":0.10252},{"urn":"101243","name":"Eastbrook School","postcode":"RM10 7UR","phase":"All-through","lat":51.55033,"lng":0.16398},{"urn":"101244","name":"Eastbury Community School","postcode":"IG11 9UW","phase":"All-through","lat":51.54252,"lng":0.09015},{"urn":"101245","name":"Robert Clack School","postcode":"RM8 1JU","phase":"All-through","lat":51.56269,"lng":0.15399},{"urn":"101247","name":"All Saints Catholic School and Technology College","postcode":"RM8 1JT","phase":"Secondary","lat":51.56283,"lng":0.15134},{"urn":"101251","name":"Brookhill Nursery School","postcode":"EN4 8SD","phase":"Nursery","lat":51.6454,"lng":-0.16532},{"urn":"101252","name":"Hampden Way Nursery School","postcode":"N14 5DJ","phase":"Nursery","lat":51.63093,"lng":-0.14192},{"urn":"101253","name":"Moss Hall Nursery School","postcode":"N3 1NR","phase":"Nursery","lat":51.61067,"lng":-0.18651},{"urn":"101254","name":"St Margaret's Nursery School","postcode":"EN4 9NT","phase":"Nursery","lat":51.6494,"lng":-0.16746},{"urn":"101258","name":"Barnfield Primary School","postcode":"HA8 0DA","phase":"Primary","lat":51.60103,"lng":-0.26467},{"urn":"101262","name":"Brookland Junior School","postcode":"NW11 6EJ","phase":"Primary","lat":51.58994,"lng":-0.18806},{"urn":"101263","name":"Brookland Infant and Nursery School","postcode":"NW11 6EJ","phase":"Primary","lat":51.58994,"lng":-0.18806},{"urn":"101264","name":"Brunswick Park Primary and Nursery School","postcode":"N14 5DU","phase":"Primary","lat":51.63088,"lng":-0.14756},{"urn":"101266","name":"Church Hill School","postcode":"EN4 8NN","phase":"Primary","lat":51.63528,"lng":-0.15923},{"urn":"101269","name":"Colindale Primary School","postcode":"NW9 6DT","phase":"Primary","lat":51.59019,"lng":-0.24653},{"urn":"101270","name":"Coppetts Wood Primary School","postcode":"N10 1JS","phase":"Primary","lat":51.60258,"lng":-0.1531},{"urn":"101271","name":"Courtland School","postcode":"NW7 3BG","phase":"Primary","lat":51.62724,"lng":-0.25288},{"urn":"101272","name":"Cromer Road Primary School","postcode":"EN5 5HT","phase":"Primary","lat":51.65352,"lng":-0.17678},{"urn":"101274","name":"Deansbrook Infant School","postcode":"NW7 3ED","phase":"Primary","lat":51.61265,"lng":-0.26203},{"urn":"101277","name":"Edgware Primary School","postcode":"HA8 9AB","phase":"Primary","lat":51.60916,"lng":-0.27379},{"urn":"101278","name":"Fairway Primary School and Children's Centre","postcode":"NW7 3HS","phase":"Primary","lat":51.62739,"lng":-0.25642},{"urn":"101279","name":"Foulds School","postcode":"EN5 4NR","phase":"Primary","lat":51.65681,"lng":-0.21179},{"urn":"101280","name":"Frith Manor Primary School","postcode":"N12 7BN","phase":"Primary","lat":51.61461,"lng":-0.20301},{"urn":"101281","name":"Garden Suburb Junior School","postcode":"NW11 6XU","phase":"Primary","lat":51.58551,"lng":-0.19863},{"urn":"101282","name":"Garden Suburb Infant School","postcode":"NW11 6XU","phase":"Primary","lat":51.58551,"lng":-0.19863},{"urn":"101283","name":"Goldbeaters Primary School","postcode":"HA8 0HA","phase":"Primary","lat":51.60407,"lng":-0.2573},{"urn":"101285","name":"Hollickwood Primary School","postcode":"N10 2NL","phase":"Primary","lat":51.60488,"lng":-0.14404},{"urn":"101286","name":"Holly Park Primary School","postcode":"N11 3HG","phase":"Primary","lat":51.61692,"lng":-0.15126},{"urn":"101289","name":"Livingstone Primary and Nursery School","postcode":"EN4 9BU","phase":"Primary","lat":51.65463,"lng":-0.16712},{"urn":"101290","name":"Manorside Primary School","postcode":"N3 2AB","phase":"Primary","lat":51.6009,"lng":-0.1805},{"urn":"101293","name":"Monkfrith Primary School","postcode":"N14 5NG","phase":"Primary","lat":51.63676,"lng":-0.14631},{"urn":"101294","name":"Moss Hall Junior School","postcode":"N3 1NR","phase":"Primary","lat":51.61067,"lng":-0.18651},{"urn":"101295","name":"Moss Hall Infant School","postcode":"N12 8PE","phase":"Primary","lat":51.60979,"lng":-0.18389},{"urn":"101296","name":"Northside Primary School","postcode":"N12 8JP","phase":"Primary","lat":51.6161,"lng":-0.1794},{"urn":"101298","name":"Woodridge Primary School","postcode":"N12 7HE","phase":"Primary","lat":51.62393,"lng":-0.19368},{"urn":"101299","name":"Tudor Primary School","postcode":"N3 2AG","phase":"Primary","lat":51.60061,"lng":-0.17839},{"urn":"101301","name":"Underhill School","postcode":"EN5 2LZ","phase":"Primary","lat":51.645,"lng":-0.2072},{"urn":"101304","name":"Whitings Hill Primary School","postcode":"EN5 2QY","phase":"Primary","lat":51.64618,"lng":-0.21697},{"urn":"101309","name":"Chalgrove Primary School","postcode":"N3 3PL","phase":"Primary","lat":51.59251,"lng":-0.20574},{"urn":"101311","name":"Sunnyfields Primary School","postcode":"NW4 4JH","phase":"Primary","lat":51.59153,"lng":-0.23231},{"urn":"101312","name":"Queenswell Infant & Nursery School","postcode":"N20 0NQ","phase":"Primary","lat":51.62743,"lng":-0.17018},{"urn":"101313","name":"Queenswell Junior School","postcode":"N20 0NQ","phase":"Primary","lat":51.62743,"lng":-0.17018},{"urn":"101314","name":"Danegrove Primary School","postcode":"EN4 8UD","phase":"Primary","lat":51.64361,"lng":-0.15759},{"urn":"101315","name":"All Saints' CofE Primary School NW2","postcode":"NW2 2TH","phase":"Primary","lat":51.56213,"lng":-0.19993},{"urn":"101316","name":"Christ Church Primary School","postcode":"EN5 4NS","phase":"Primary","lat":51.65777,"lng":-0.21347},{"urn":"101317","name":"Holy Trinity CofE Primary School","postcode":"N2 8GA","phase":"Primary","lat":51.59145,"lng":-0.1692},{"urn":"101318","name":"Monken Hadley CofE Primary School","postcode":"EN4 0NJ","phase":"Primary","lat":51.66345,"lng":-0.18779},{"urn":"101319","name":"St John's CofE Junior Mixed and Infant School","postcode":"N11 3LB","phase":"Primary","lat":51.61659,"lng":-0.15383},{"urn":"101321","name":"St John's CofE Primary and Nursery School","postcode":"N20 0PL","phase":"Primary","lat":51.62656,"lng":-0.17833},{"urn":"101323","name":"St Mary's CofE Primary School","postcode":"N3 1BT","phase":"Primary","lat":51.6036,"lng":-0.20022},{"urn":"101324","name":"St Mary's CofE Primary School, East Barnet","postcode":"EN4 8SR","phase":"Primary","lat":51.64098,"lng":-0.16144},{"urn":"101325","name":"St Paul's CofE Primary School N11","postcode":"N11 1NQ","phase":"Primary","lat":51.61631,"lng":-0.14421},{"urn":"101326","name":"St Paul's CofE Primary School NW7","postcode":"NW7 1QU","phase":"Primary","lat":51.62056,"lng":-0.23139},{"urn":"101327","name":"St Andrew's CofE Voluntary Aided Primary School, Totteridge","postcode":"N20 8NX","phase":"Primary","lat":51.62991,"lng":-0.19642},{"urn":"101328","name":"Trent CofE Primary School","postcode":"EN4 9JH","phase":"Primary","lat":51.65031,"lng":-0.15281},{"urn":"101329","name":"All Saints' CofE Nursery and Primary School N20","postcode":"N20 9EZ","phase":"Primary","lat":51.6296,"lng":-0.16901},{"urn":"101330","name":"The Annunciation Catholic Infant School","postcode":"HA8 0HQ","phase":"Primary","lat":51.60276,"lng":-0.26012},{"urn":"101331","name":"Our Lady of Lourdes RC School","postcode":"N12 0JP","phase":"Primary","lat":51.60509,"lng":-0.17804},{"urn":"101332","name":"St Agnes' Catholic Primary School","postcode":"NW2 1RG","phase":"Primary","lat":51.5605,"lng":-0.21088},{"urn":"101333","name":"St Catherine's RC School","postcode":"EN5 2ED","phase":"Primary","lat":51.64883,"lng":-0.1947},{"urn":"101334","name":"St Vincent's Catholic Primary School","postcode":"NW7 1EJ","phase":"Primary","lat":51.61711,"lng":-0.22341},{"urn":"101335","name":"St Theresa's Catholic Primary School","postcode":"N3 2TD","phase":"Primary","lat":51.59472,"lng":-0.1884},{"urn":"101337","name":"St Joseph's Catholic Primary School","postcode":"NW4 4TY","phase":"Primary","lat":51.58729,"lng":-0.23145},{"urn":"101338","name":"Sacred Heart Roman Catholic Primary School","postcode":"N20 9JU","phase":"Primary","lat":51.63009,"lng":-0.16382},{"urn":"101339","name":"Blessed Dominic Catholic Primary School","postcode":"NW9 5PE","phase":"Primary","lat":51.60083,"lng":-0.24094},{"urn":"101340","name":"Rosh Pinah Primary School","postcode":"HA8 8TE","phase":"Primary","lat":51.62655,"lng":-0.2704},{"urn":"101341","name":"Menorah Primary School for Girls","postcode":"NW11 9SP","phase":"Primary","lat":51.57448,"lng":-0.2069},{"urn":"101342","name":"The Annunciation RC Junior School","postcode":"HA8 9HQ","phase":"Primary","lat":51.61188,"lng":-0.25823},{"urn":"101345","name":"Friern Barnet School","postcode":"N11 3LS","phase":"Secondary","lat":51.61608,"lng":-0.15471},{"urn":"101361","name":"St Michael's Catholic Grammar School","postcode":"N12 7NJ","phase":"Secondary","lat":51.6144,"lng":-0.18064},{"urn":"101362","name":"Finchley Catholic High School","postcode":"N12 8TA","phase":"Secondary","lat":51.62222,"lng":-0.18161},{"urn":"101364","name":"St James' Catholic High School","postcode":"NW9 5PE","phase":"Secondary","lat":51.60083,"lng":-0.24094},{"urn":"101376","name":"Mathilda Marks-Kennedy Jewish Primary School","postcode":"NW7 3RT","phase":"Primary","lat":51.61593,"lng":-0.25595},{"urn":"101402","name":"Crook Log Primary School","postcode":"DA6 8EQ","phase":"Primary","lat":51.45897,"lng":0.12725},{"urn":"101403","name":"Danson Primary School","postcode":"DA16 2BH","phase":"Primary","lat":51.45739,"lng":0.10882},{"urn":"101413","name":"Upton Primary School","postcode":"DA5 1HH","phase":"Primary","lat":51.44938,"lng":0.13503},{"urn":"101426","name":"Birkbeck Primary School","postcode":"DA14 4ED","phase":"Primary","lat":51.43194,"lng":0.10583},{"urn":"101429","name":"Longlands Primary School","postcode":"DA15 7JG","phase":"Primary","lat":51.4308,"lng":0.09099},{"urn":"101434","name":"Dulverton Primary School","postcode":"SE9 3RH","phase":"Primary","lat":51.43549,"lng":0.08099},{"urn":"101437","name":"Parkway Primary School","postcode":"DA18 4DP","phase":"Primary","lat":51.49356,"lng":0.13462},{"urn":"101451","name":"Foster's Primary School","postcode":"DA16 1PN","phase":"Primary","lat":51.46311,"lng":0.12159},{"urn":"101455","name":"St Stephen's Catholic Primary School","postcode":"DA16 3QG","phase":"Primary","lat":51.46415,"lng":0.10405},{"urn":"101456","name":"Our Lady of the Rosary Catholic Primary School","postcode":"DA15 8QW","phase":"Primary","lat":51.44793,"lng":0.09295},{"urn":"101457","name":"St Joseph's Catholic Primary School","postcode":"DA1 4DZ","phase":"Primary","lat":51.45396,"lng":0.17204},{"urn":"101458","name":"St Fidelis Catholic Primary School","postcode":"DA8 3HQ","phase":"Primary","lat":51.47628,"lng":0.16289},{"urn":"101460","name":"St John Fisher Catholic Primary School","postcode":"DA18 4BA","phase":"Primary","lat":51.49502,"lng":0.13218},{"urn":"101489","name":"Curzon Nursery School & Family Wellbeing Centre","postcode":"NW10 9SD","phase":"Nursery","lat":51.54509,"lng":-0.25004},{"urn":"101490","name":"Fawood Nursery School & Family Wellbeing Centre","postcode":"NW10 8DX","phase":"Nursery","lat":51.54224,"lng":-0.26102},{"urn":"101491","name":"College Green School and Services","postcode":"NW10 3PH","phase":"Nursery","lat":51.53692,"lng":-0.22727},{"urn":"101492","name":"Granville Plus Nursery School","postcode":"NW6 5RA","phase":"Nursery","lat":51.53274,"lng":-0.19794},{"urn":"101494","name":"Peel Park Primary School and Nursery","postcode":"BD2 4PR","phase":"Primary","lat":53.80742,"lng":-1.735},{"urn":"101495","name":"Anson Primary School","postcode":"NW2 4AB","phase":"Primary","lat":51.55388,"lng":-0.2199},{"urn":"101496","name":"Brentfield Primary School","postcode":"NW10 0SL","phase":"Primary","lat":51.54703,"lng":-0.26375},{"urn":"101498","name":"Carlton Vale Infant School","postcode":"NW6 5PX","phase":"Primary","lat":51.53207,"lng":-0.20098},{"urn":"101499","name":"Harlesden Primary School","postcode":"NW10 8UT","phase":"Primary","lat":51.53686,"lng":-0.25396},{"urn":"101500","name":"Mount Stewart Junior School","postcode":"HA3 0JX","phase":"Primary","lat":51.57814,"lng":-0.30081},{"urn":"101501","name":"Mount Stewart Infant School","postcode":"HA3 0JX","phase":"Primary","lat":51.57814,"lng":-0.30081},{"urn":"101502","name":"Uxendon Manor Primary School","postcode":"HA3 0UX","phase":"Primary","lat":51.58338,"lng":-0.29795},{"urn":"101503","name":"Kingsbury Green Primary School","postcode":"NW9 9ND","phase":"Primary","lat":51.58432,"lng":-0.27046},{"urn":"101504","name":"Leopold Primary School","postcode":"NW10 9UR","phase":"Primary","lat":51.54445,"lng":-0.24688},{"urn":"101506","name":"Lyon Park Primary School","postcode":"HA0 4HH","phase":"Primary","lat":51.54396,"lng":-0.28847},{"urn":"101507","name":"Malorees Primary School","postcode":"NW6 7PB","phase":"Primary","lat":51.54156,"lng":-0.21476},{"urn":"101508","name":"Northview Junior and Infant School","postcode":"NW10 1RD","phase":"Primary","lat":51.5555,"lng":-0.24671},{"urn":"101509","name":"Park Lane Primary School","postcode":"HA9 7RY","phase":"Primary","lat":51.55589,"lng":-0.29382},{"urn":"101510","name":"Preston Park Primary School","postcode":"HA9 8RJ","phase":"Primary","lat":51.57195,"lng":-0.3006},{"urn":"101511","name":"Roe Green Junior School","postcode":"NW9 9JL","phase":"Primary","lat":51.58998,"lng":-0.27245},{"urn":"101512","name":"Roe Green Infant School","postcode":"NW9 9JL","phase":"Primary","lat":51.58998,"lng":-0.27245},{"urn":"101515","name":"Barham Primary School","postcode":"HA0 4RQ","phase":"Primary","lat":51.54889,"lng":-0.30523},{"urn":"101518","name":"Wykeham Primary School","postcode":"NW10 0EX","phase":"Primary","lat":51.56247,"lng":-0.25452},{"urn":"101519","name":"Elsley Primary School","postcode":"HA9 6HT","phase":"Primary","lat":51.54902,"lng":-0.28703},{"urn":"101520","name":"Donnington Primary School","postcode":"NW10 3TL","phase":"Primary","lat":51.54183,"lng":-0.23346},{"urn":"101521","name":"The Stonebridge School","postcode":"NW10 8NG","phase":"Primary","lat":51.54064,"lng":-0.26365},{"urn":"101522","name":"Newfield Primary School","postcode":"NW10 3UD","phase":"Primary","lat":51.54232,"lng":-0.24314},{"urn":"101524","name":"Mitchell Brook Primary School","postcode":"NW10 9BX","phase":"Primary","lat":51.54739,"lng":-0.25506},{"urn":"101526","name":"Chalkhill Primary School","postcode":"HA9 9YP","phase":"Primary","lat":51.56201,"lng":-0.27015},{"urn":"101527","name":"Salusbury Primary School","postcode":"NW6 6RG","phase":"Primary","lat":51.53771,"lng":-0.20657},{"urn":"101528","name":"Oliver Goldsmith Primary School","postcode":"NW9 0BD","phase":"Primary","lat":51.58325,"lng":-0.25868},{"urn":"101530","name":"Mora Primary School","postcode":"NW2 6TD","phase":"Primary","lat":51.5587,"lng":-0.22441},{"urn":"101531","name":"Fryent Primary School","postcode":"NW9 8JD","phase":"Primary","lat":51.57782,"lng":-0.2631},{"urn":"101533","name":"Christ Church CofE Primary School","postcode":"NW6 7TE","phase":"Primary","lat":51.54091,"lng":-0.20408},{"urn":"101534","name":"John Keble CofE Primary School","postcode":"NW10 4DR","phase":"Primary","lat":51.53791,"lng":-0.24716},{"urn":"101535","name":"Princess Frederica CofE Primary School","postcode":"NW10 5TP","phase":"Primary","lat":51.533,"lng":-0.22491},{"urn":"101537","name":"St Mary's CofE Primary School","postcode":"NW10 9JA","phase":"Primary","lat":51.54837,"lng":-0.25209},{"urn":"101539","name":"St Joseph's Catholic Junior School","postcode":"HA9 6BE","phase":"Primary","lat":51.55236,"lng":-0.28664},{"urn":"101542","name":"St Mary Magdalen's Catholic Junior School","postcode":"NW2 5BB","phase":"Primary","lat":51.54836,"lng":-0.229},{"urn":"101543","name":"St Robert Southwell Catholic Primary School","postcode":"NW9 8YD","phase":"Primary","lat":51.5825,"lng":-0.26693},{"urn":"101544","name":"Convent of Jesus and Mary RC Infant School","postcode":"NW2 5AN","phase":"Primary","lat":51.54838,"lng":-0.22676},{"urn":"101545","name":"Our Lady of Lourdes Catholic Primary School","postcode":"NW10 8PP","phase":"Primary","lat":51.54079,"lng":-0.26487},{"urn":"101546","name":"St Joseph's Catholic Infant School","postcode":"HA9 6TA","phase":"Primary","lat":51.55182,"lng":-0.28769},{"urn":"101549","name":"Sinai Jewish Primary School","postcode":"HA3 9UD","phase":"Primary","lat":51.57949,"lng":-0.28168},{"urn":"101555","name":"St Joseph's Roman Catholic Primary School","postcode":"NW10 9LS","phase":"Primary","lat":51.54426,"lng":-0.25088},{"urn":"101556","name":"The Kilburn Park School Foundation","postcode":"NW6 5RG","phase":"Primary","lat":51.53221,"lng":-0.19967},{"urn":"101564","name":"Newman Catholic College","postcode":"NW10 3RN","phase":"Secondary","lat":51.53759,"lng":-0.23921},{"urn":"101574","name":"Islamia Primary School","postcode":"NW6 6PE","phase":"Primary","lat":51.53961,"lng":-0.20794},{"urn":"101635","name":"Edgebury Primary School","postcode":"BR7 6BL","phase":"Primary","lat":51.42368,"lng":0.07153},{"urn":"101641","name":"Poverest Primary School","postcode":"BR5 2JD","phase":"Primary","lat":51.3912,"lng":0.09721},{"urn":"101676","name":"St Olave's and St Saviour's Grammar School","postcode":"BR6 9SH","phase":"Secondary","lat":51.36685,"lng":0.10405},{"urn":"101702","name":"Crosfield Nursery School","postcode":"SE25 5BD","phase":"Nursery","lat":51.39383,"lng":-0.07186},{"urn":"101704","name":"Purley Nursery School","postcode":"CR8 2NE","phase":"Nursery","lat":51.34112,"lng":-0.11474},{"urn":"101705","name":"Tunstall Nursery School","postcode":"CR0 6TY","phase":"Nursery","lat":51.37836,"lng":-0.08387},{"urn":"101712","name":"Beulah Junior School","postcode":"CR7 8JF","phase":"Primary","lat":51.40395,"lng":-0.09991},{"urn":"101720","name":"Elmwood Junior School","postcode":"CR0 2PL","phase":"Primary","lat":51.38734,"lng":-0.1056},{"urn":"101721","name":"Elmwood Infant School","postcode":"CR0 2PL","phase":"Primary","lat":51.38734,"lng":-0.1056},{"urn":"101725","name":"Howard Primary School","postcode":"CR0 1DT","phase":"Primary","lat":51.36488,"lng":-0.10157},{"urn":"101733","name":"Purley Oaks Primary School","postcode":"CR2 0PR","phase":"Primary","lat":51.35236,"lng":-0.09568},{"urn":"101745","name":"Winterbourne Junior Girls' School","postcode":"CR7 7QT","phase":"Primary","lat":51.39928,"lng":-0.11392},{"urn":"101746","name":"Winterbourne Nursery and Infants' School","postcode":"CR7 7QT","phase":"Primary","lat":51.39928,"lng":-0.11392},{"urn":"101756","name":"Beaumont Primary School","postcode":"CR8 4DN","phase":"Primary","lat":51.32583,"lng":-0.12029},{"urn":"101758","name":"Gresham Primary School","postcode":"CR2 9EA","phase":"Primary","lat":51.33481,"lng":-0.07772},{"urn":"101759","name":"Smitham Primary School","postcode":"CR5 3DE","phase":"Primary","lat":51.31486,"lng":-0.15129},{"urn":"101760","name":"The Hayes Primary School","postcode":"CR8 5JN","phase":"Primary","lat":51.31734,"lng":-0.10873},{"urn":"101773","name":"Forestdale Primary School","postcode":"CR0 9JE","phase":"Primary","lat":51.34852,"lng":-0.04094},{"urn":"101776","name":"Heavers Farm Primary School","postcode":"SE25 6LT","phase":"Primary","lat":51.39451,"lng":-0.08265},{"urn":"101778","name":"Downsview Primary and Nursery School","postcode":"SE19 3XE","phase":"Primary","lat":51.41449,"lng":-0.10203},{"urn":"101779","name":"Park Hill Infant School","postcode":"CR0 5NS","phase":"Primary","lat":51.36877,"lng":-0.08928},{"urn":"101781","name":"Greenvale Primary School","postcode":"CR2 8PR","phase":"Primary","lat":51.33956,"lng":-0.05274},{"urn":"101783","name":"Rockmount Primary School","postcode":"SE19 3ST","phase":"Primary","lat":51.4194,"lng":-0.0898},{"urn":"101785","name":"Norbury Manor Primary School","postcode":"SW16 5QR","phase":"Primary","lat":51.41008,"lng":-0.1281},{"urn":"101787","name":"All Saints CofE Primary School","postcode":"SE19 3LG","phase":"Primary","lat":51.41283,"lng":-0.08698},{"urn":"101788","name":"St John's CofE Primary School","postcode":"CR0 5EL","phase":"Primary","lat":51.37272,"lng":-0.04958},{"urn":"101792","name":"Coulsdon CofE Primary School","postcode":"CR5 1ED","phase":"Primary","lat":51.3081,"lng":-0.12365},{"urn":"101793","name":"Christ Church CofE Primary School (Purley)","postcode":"CR8 2QE","phase":"Primary","lat":51.34377,"lng":-0.11019},{"urn":"101795","name":"St Joseph's RC Junior School","postcode":"SE19 3NU","phase":"Primary","lat":51.42183,"lng":-0.10003},{"urn":"101797","name":"Margaret Roper Catholic Primary School","postcode":"CR8 2XP","phase":"Primary","lat":51.34406,"lng":-0.12015},{"urn":"101803","name":"St Joseph's RC Infant School","postcode":"SE19 3NX","phase":"Primary","lat":51.42238,"lng":-0.09963},{"urn":"101811","name":"Archbishop Tenison's CofE High School","postcode":"CR0 5JQ","phase":"Secondary","lat":51.36911,"lng":-0.08372},{"urn":"101814","name":"St Mary's Catholic High School","postcode":"CR9 2EE","phase":"Secondary","lat":51.38062,"lng":-0.098},{"urn":"101815","name":"Selsdon Primary and Nursery School","postcode":"CR2 8LQ","phase":"Primary","lat":51.34695,"lng":-0.05587},{"urn":"101821","name":"Thomas More Catholic School","postcode":"CR8 2XP","phase":"Secondary","lat":51.34406,"lng":-0.12015},{"urn":"101858","name":"Maples Nursery School and Children's Centre","postcode":"W3 7LL","phase":"Nursery","lat":51.50929,"lng":-0.26179},{"urn":"101860","name":"Grove House Nursery School & Children's Centre","postcode":"UB1 2JG","phase":"Nursery","lat":51.51251,"lng":-0.3724},{"urn":"101861","name":"South Acton Childrens Centre","postcode":"W3 8RX","phase":"Nursery","lat":51.50383,"lng":-0.27341},{"urn":"101862","name":"Greenfields Nursery School and Children's Centre","postcode":"UB2 5PF","phase":"Nursery","lat":51.49767,"lng":-0.38728},{"urn":"101867","name":"Acton Gardens Primary School","postcode":"W3 8SJ","phase":"Primary","lat":51.50232,"lng":-0.27263},{"urn":"101868","name":"East Acton Primary School","postcode":"W3 7HA","phase":"Primary","lat":51.51142,"lng":-0.25611},{"urn":"101869","name":"Oldfield Primary School","postcode":"UB6 8PR","phase":"Primary","lat":51.53752,"lng":-0.34827},{"urn":"101870","name":"North Ealing Primary School","postcode":"W5 1RP","phase":"Primary","lat":51.52591,"lng":-0.31801},{"urn":"101873","name":"St John's Primary School","postcode":"W13 0SE","phase":"Primary","lat":51.51192,"lng":-0.3231},{"urn":"101874","name":"St Mark's Primary School","postcode":"W7 2NR","phase":"Primary","lat":51.50759,"lng":-0.34183},{"urn":"101875","name":"West Twyford Primary School","postcode":"NW10 7DN","phase":"Primary","lat":51.53409,"lng":-0.28273},{"urn":"101876","name":"West Acton Primary School","postcode":"W3 0JL","phase":"Primary","lat":51.51751,"lng":-0.27964},{"urn":"101877","name":"Mayfield Primary School","postcode":"W7 3RT","phase":"Primary","lat":51.52095,"lng":-0.34753},{"urn":"101878","name":"Beaconsfield Primary and Nursery School","postcode":"UB1 1DR","phase":"Primary","lat":51.50773,"lng":-0.38299},{"urn":"101879","name":"Coston Primary School","postcode":"UB6 9JU","phase":"Primary","lat":51.53438,"lng":-0.35151},{"urn":"101880","name":"Downe Manor Primary School","postcode":"UB5 6NW","phase":"Primary","lat":51.53419,"lng":-0.40357},{"urn":"101881","name":"Drayton Green Primary School","postcode":"W13 0LA","phase":"Primary","lat":51.51536,"lng":-0.32341},{"urn":"101884","name":"North Primary School","postcode":"UB1 2JE","phase":"Primary","lat":51.51323,"lng":-0.37414},{"urn":"101885","name":"Ravenor Primary School","postcode":"UB6 9TT","phase":"Primary","lat":51.53229,"lng":-0.36484},{"urn":"101886","name":"Selborne Primary School","postcode":"UB6 8JD","phase":"Primary","lat":51.53718,"lng":-0.3354},{"urn":"101887","name":"Hambrough Primary School","postcode":"UB1 1SF","phase":"Primary","lat":51.50828,"lng":-0.37822},{"urn":"101888","name":"Hobbayne Primary School","postcode":"W7 1HA","phase":"Primary","lat":51.5161,"lng":-0.3374},{"urn":"101889","name":"John Perryn Primary School","postcode":"W3 7PD","phase":"Primary","lat":51.51914,"lng":-0.25457},{"urn":"101890","name":"Southfield Primary School","postcode":"W4 1BD","phase":"Primary","lat":51.50133,"lng":-0.2567},{"urn":"101891","name":"Allenby Primary School","postcode":"UB1 2HX","phase":"Primary","lat":51.52012,"lng":-0.36537},{"urn":"101892","name":"Blair Peach Primary School","postcode":"UB1 1DD","phase":"Primary","lat":51.50847,"lng":-0.3903},{"urn":"101893","name":"Clifton Primary School","postcode":"UB2 5QP","phase":"Primary","lat":51.49841,"lng":-0.38205},{"urn":"101894","name":"Dairy Meadow Primary School","postcode":"UB2 4RP","phase":"Primary","lat":51.50194,"lng":-0.37328},{"urn":"101895","name":"Derwentwater Primary School","postcode":"W3 6SA","phase":"Primary","lat":51.51,"lng":-0.26882},{"urn":"101896","name":"Durdans Park Primary School","postcode":"UB1 2PQ","phase":"Primary","lat":51.52338,"lng":-0.37605},{"urn":"101897","name":"Fielding Primary School","postcode":"W13 9TE","phase":"Primary","lat":51.5014,"lng":-0.32087},{"urn":"101898","name":"Gifford Primary School","postcode":"UB5 6BU","phase":"Primary","lat":51.53596,"lng":-0.37598},{"urn":"101899","name":"Greenwood Primary School","postcode":"UB5 4QG","phase":"Primary","lat":51.55417,"lng":-0.3503},{"urn":"101900","name":"Havelock Primary School, Nursery & Arp","postcode":"UB2 4PA","phase":"Primary","lat":51.50129,"lng":-0.37495},{"urn":"101901","name":"Horsenden Primary School","postcode":"UB6 0PB","phase":"Primary","lat":51.55043,"lng":-0.33519},{"urn":"101902","name":"Willow Tree Primary School","postcode":"UB5 5FE","phase":"Primary","lat":51.55021,"lng":-0.37797},{"urn":"101903","name":"Lady Margaret Primary School","postcode":"UB1 2NH","phase":"Primary","lat":51.52404,"lng":-0.37408},{"urn":"101904","name":"Little Ealing Primary School","postcode":"W5 4EA","phase":"Primary","lat":51.49805,"lng":-0.30836},{"urn":"101905","name":"Oaklands Primary School","postcode":"W7 2DP","phase":"Primary","lat":51.50459,"lng":-0.33217},{"urn":"101906","name":"Perivale Primary School","postcode":"UB6 7AP","phase":"Primary","lat":51.53683,"lng":-0.31014},{"urn":"101907","name":"Stanhope Primary School","postcode":"UB6 9EG","phase":"Primary","lat":51.52722,"lng":-0.35546},{"urn":"101908","name":"Viking Primary School","postcode":"UB5 6HW","phase":"Primary","lat":51.53283,"lng":-0.39287},{"urn":"101909","name":"Wolf Fields Primary School","postcode":"UB2 4JS","phase":"Primary","lat":51.49681,"lng":-0.37572},{"urn":"101910","name":"Featherstone Primary and Nursery School","postcode":"UB2 5JT","phase":"Primary","lat":51.49814,"lng":-0.39412},{"urn":"101911","name":"Three Bridges Primary School","postcode":"UB2 4HT","phase":"Primary","lat":51.50054,"lng":-0.36322},{"urn":"101912","name":"Montpelier Primary School","postcode":"W5 2QT","phase":"Primary","lat":51.52334,"lng":-0.30097},{"urn":"101913","name":"Tudor Primary School","postcode":"UB1 1NX","phase":"Primary","lat":51.51359,"lng":-0.38454},{"urn":"101916","name":"Vicar's Green Primary School","postcode":"HA0 1DP","phase":"Primary","lat":51.53513,"lng":-0.30935},{"urn":"101927","name":"The Edward Betham Church of England Primary School","postcode":"UB6 9JU","phase":"Primary","lat":51.53438,"lng":-0.35151},{"urn":"101928","name":"Villiers High School","postcode":"UB1 3BT","phase":"Secondary","lat":51.51016,"lng":-0.37332},{"urn":"101934","name":"The Cardinal Wiseman Catholic School","postcode":"UB6 9AW","phase":"Secondary","lat":51.52527,"lng":-0.3521},{"urn":"101939","name":"Brentside High School","postcode":"W7 1JJ","phase":"Secondary","lat":51.52469,"lng":-0.34095},{"urn":"101940","name":"Greenford High School","postcode":"UB1 2GU","phase":"Secondary","lat":51.53102,"lng":-0.37039},{"urn":"101941","name":"The Ellen Wilkinson School for Girls","postcode":"W3 0HW","phase":"Secondary","lat":51.51707,"lng":-0.28648},{"urn":"101943","name":"Islip Manor High School","postcode":"UB5 4HP","phase":"Secondary","lat":51.5517,"lng":-0.37504},{"urn":"101981","name":"Capel Manor Primary School","postcode":"EN1 4RL","phase":"Primary","lat":51.67867,"lng":-0.05463},{"urn":"101983","name":"Carterhatch Infant School","postcode":"EN1 4JY","phase":"Primary","lat":51.66125,"lng":-0.05673},{"urn":"101984","name":"Chase Side Primary School","postcode":"EN2 6NS","phase":"Primary","lat":51.65891,"lng":-0.08962},{"urn":"101989","name":"Firs Farm Primary School","postcode":"N13 5QP","phase":"Primary","lat":51.62403,"lng":-0.08431},{"urn":"101992","name":"Garfield Primary School","postcode":"N11 1BH","phase":"Primary","lat":51.614,"lng":-0.13694},{"urn":"101993","name":"George Spicer Primary School","postcode":"EN1 1YF","phase":"Primary","lat":51.65123,"lng":-0.06774},{"urn":"101994","name":"Hadley Wood Primary School","postcode":"EN4 0HT","phase":"Primary","lat":51.67004,"lng":-0.17085},{"urn":"101996","name":"Hazelwood Junior School","postcode":"N13 5HE","phase":"Primary","lat":51.61778,"lng":-0.10203},{"urn":"101997","name":"Hazelwood Infant School","postcode":"N13 5HE","phase":"Primary","lat":51.61778,"lng":-0.10203},{"urn":"102002","name":"Prince of Wales Primary School","postcode":"EN3 6HG","phase":"Primary","lat":51.66979,"lng":-0.02247},{"urn":"102003","name":"The Raglan Junior School","postcode":"EN1 2RG","phase":"Primary","lat":51.63744,"lng":-0.07197},{"urn":"102004","name":"Raglan Infant School","postcode":"EN1 2NS","phase":"Primary","lat":51.63661,"lng":-0.07276},{"urn":"102005","name":"Suffolks Primary School","postcode":"EN1 3PU","phase":"Primary","lat":51.65725,"lng":-0.05514},{"urn":"102006","name":"Tottenhall Infant School","postcode":"N13 6HX","phase":"Primary","lat":51.61104,"lng":-0.10771},{"urn":"102014","name":"Southbury Primary School","postcode":"EN3 4JG","phase":"Primary","lat":51.64978,"lng":-0.04913},{"urn":"102024","name":"Bush Hill Park Primary School","postcode":"EN1 1DS","phase":"Primary","lat":51.6449,"lng":-0.06411},{"urn":"102026","name":"St Michael at Bowes CofE Junior School","postcode":"N13 6JB","phase":"Primary","lat":51.61106,"lng":-0.10364},{"urn":"102027","name":"St John's CofE Primary School","postcode":"EN2 9BD","phase":"Primary","lat":51.67493,"lng":-0.09612},{"urn":"102028","name":"Forty Hill CofE Primary School","postcode":"EN2 9EY","phase":"Primary","lat":51.67097,"lng":-0.06103},{"urn":"102029","name":"St Andrew's CofE Primary School","postcode":"EN1 3UL","phase":"Primary","lat":51.65771,"lng":-0.07721},{"urn":"102030","name":"St Andrew's Southgate Primary School (CE)","postcode":"N14 6JA","phase":"Primary","lat":51.63418,"lng":-0.12809},{"urn":"102031","name":"Freezywater St George's CofE VA Primary School","postcode":"EN3 6NR","phase":"Primary","lat":51.67398,"lng":-0.03884},{"urn":"102032","name":"St John and St James CofE Primary School","postcode":"N18 2TL","phase":"Primary","lat":51.61086,"lng":-0.06765},{"urn":"102033","name":"St James CofE Primary School","postcode":"EN3 7HH","phase":"Primary","lat":51.65807,"lng":-0.04484},{"urn":"102034","name":"St Michael's CofE Primary School","postcode":"EN2 0NB","phase":"Primary","lat":51.66407,"lng":-0.08818},{"urn":"102035","name":"St Paul's CofE Primary School","postcode":"N21 2RA","phase":"Primary","lat":51.6346,"lng":-0.09963},{"urn":"102036","name":"St Mary's Catholic Primary School","postcode":"EN3 7DE","phase":"Primary","lat":51.64826,"lng":-0.04014},{"urn":"102037","name":"St Edmund's Catholic Primary School","postcode":"N9 7HJ","phase":"Primary","lat":51.62928,"lng":-0.05566},{"urn":"102038","name":"St George's Catholic Primary School","postcode":"EN2 0QA","phase":"Primary","lat":51.65989,"lng":-0.08115},{"urn":"102039","name":"St Monica's RC Primary School","postcode":"N14 7HE","phase":"Primary","lat":51.62305,"lng":-0.12041},{"urn":"102040","name":"Our Lady of Lourdes Catholic Primary School","postcode":"N11 1RD","phase":"Primary","lat":51.61547,"lng":-0.13777},{"urn":"102041","name":"Latymer All Saints CofE Primary School","postcode":"N9 9RS","phase":"Primary","lat":51.62512,"lng":-0.07021},{"urn":"102045","name":"Winchmore School","postcode":"N21 3HS","phase":"Secondary","lat":51.6292,"lng":-0.09139},{"urn":"102048","name":"Enfield County School for Girls","postcode":"EN2 6QG","phase":"Secondary","lat":51.65422,"lng":-0.08369},{"urn":"102049","name":"Chace Community School","postcode":"EN1 3HQ","phase":"Secondary","lat":51.66068,"lng":-0.07531},{"urn":"102052","name":"Bishop Stopford's School","postcode":"EN1 3PU","phase":"Secondary","lat":51.65725,"lng":-0.05514},{"urn":"102053","name":"St Anne's Catholic High School for Girls","postcode":"N13 5TY","phase":"Secondary","lat":51.61631,"lng":-0.10797},{"urn":"102054","name":"St Matthew's CofE Primary School","postcode":"EN3 4LA","phase":"Primary","lat":51.64375,"lng":-0.04464},{"urn":"102055","name":"The Latymer School","postcode":"N9 9TN","phase":"Secondary","lat":51.62603,"lng":-0.07412},{"urn":"102056","name":"Laurel Park School","postcode":"N14 7HY","phase":"Secondary","lat":51.61506,"lng":-0.12425},{"urn":"102058","name":"St Ignatius College","postcode":"EN1 4NP","phase":"Secondary","lat":51.67291,"lng":-0.05587},{"urn":"102071","name":"Pembury House Nursery School","postcode":"N17 9XE","phase":"Nursery","lat":51.59848,"lng":-0.06642},{"urn":"102072","name":"Rowland Hill Nursery School","postcode":"N17 7LT","phase":"Nursery","lat":51.60626,"lng":-0.08968},{"urn":"102073","name":"Woodlands Park Nursery School and Childrens Centre","postcode":"N15 3SD","phase":"Nursery","lat":51.58207,"lng":-0.09608},{"urn":"102078","name":"Belmont Junior School","postcode":"N22 6RA","phase":"Primary","lat":51.59277,"lng":-0.09363},{"urn":"102079","name":"Belmont Infant School","postcode":"N22 6RA","phase":"Primary","lat":51.59277,"lng":-0.09363},